     3.02           OBSERVATION DATA    M: Mixed            RINEX VERSION / TYPE
RTKCONV 2.4.3 b29   SINOGNSS            20250325 095440 UTC PGM / RUN BY / DATE 
log: D:\sinodata\AI\RTKlib-AI\data\k803\base2.24O           COMMENT             
format: RINEX                                               COMMENT             
rtkconv-2.4.3    FILE CONVERSION     20220401 131200 UTC    COMMENT             
0008                                                        MARKER NAME         
                                                            MARKER NUMBER       
                                                            MARKER TYPE         
                                                            OBSERVER / AGENCY   
09097550            SINOGNSS K803       609A7-1.001         REC # / TYPE / VERS 
                    NONE                                    ANT # / TYPE        
 -2831682.2116  4658825.8419  3299194.4493                  APPROX POSITION XYZ 
        0.0000        0.0000        0.0000                  ANTENNA: DELTA H/E/N
G    6 C1C L1C S1C C2X L2X S2X                              SYS / # / OBS TYPES 
R    6 C1C L1C S1C C2P L2P S2P                              SYS / # / OBS TYPES 
C    6 C1I L1I S1I C6I L6I S6I                              SYS / # / OBS TYPES 
  2024     6    26    12    49   44.0000000     GPS         TIME OF FIRST OBS   
  2024     6    26    12    52   31.0000000     GPS         TIME OF LAST OBS    
G                                                           SYS / PHASE SHIFT   
R                                                           SYS / PHASE SHIFT   
C                                                           SYS / PHASE SHIFT   
  3 R01  1 R09 -2 R17  4                                    GLONASS SLOT / FRQ #
 C1C    0.000 C1P    0.000 C2C    0.000 C2P    0.000        GLONASS COD/PHS/BIS 
                                                            END OF HEADER       
> 2024  6 26 12 49 44.0000000  0 31                     
G10  20310951.127   106734841.123          50.000    20310954.647    83170056.116          44.000  
G12  21711934.205   114097230.167          45.000    21711935.545    88907058.147          39.000  
G23  20932834.028   110002902.501          45.000    20932836.601    85716613.875          44.000  
G24  24004126.869   126142759.873          37.000    24004132.122    98293191.602          36.000  
G25  20531706.055   107895092.282          46.000    20531711.255    84074243.588          41.000  
G28  22019692.351   115714476.427          44.000    22019695.854    90167234.185          42.000  
G31  24456972.565   128522279.977          37.000    24456976.854   100147253.518          29.000  
G32  21715227.412   114114445.892          47.000    21715230.861    88920444.180          42.000  
R 5  22473583.868   120134456.600          45.000                                                  
R 6  19681393.284   105023697.749          40.000                                                  
R 7  21776543.499   116571586.416          51.000                                                  
R 9  19714677.162   105275464.756          52.000    19714677.859    81880838.909          25.000  
R10  22953938.872   122357475.585          39.000                                                  
R15  24144088.386   129018944.857          40.000                                                  
R16  19953484.896   106588205.185          52.000                                                  
C 1  37080693.868   193088922.656          45.000    37080695.101   156900600.253          34.000  
C 2  37748303.206   196565276.731          41.000    37748303.349   159725491.603          33.000  
C 3  36792761.116   191589560.457          46.000    36792760.455   155682239.691          37.000  
C 4  38424817.607   200088086.220          41.000    38424816.732   162588068.649          32.000  
C 5  40179332.067   209224347.798          37.000    40179334.211   170011979.437          29.000  
C 6  36435808.781   189730938.116          46.000    36435805.385   154171961.011          37.000  
C 8  36244042.947   188732308.632          46.000    36244038.980   153360421.648          39.000  
C 9  37574720.675   195661529.638          44.000    37574718.960   158991032.648          37.000  
C13  35953945.792   187221709.931          48.000    35953948.186   152132945.027          39.000  
C14  25749222.906   134083079.913          37.000    25749220.655   108953539.631          30.000  
C16  36888792.122   192089890.812          48.000    36888792.426   156088838.255          37.000  
C23  22408621.875   116687656.179          51.000    22408615.764    94818288.629          42.000  
C24  25855066.544   134634334.712          40.000    25855070.010   109403477.708          33.000  
C25  21963523.401   114370065.295          50.000    21963523.829    92936750.572          42.000  
C32  24308235.982   126579424.240          46.000    24308239.914   102856192.018          38.000  
C33  23994043.093   124943547.292          48.000    23994056.584   101529000.065          38.000  
> 2024  6 26 12 49 45.0000000  0 31                     
G10  20310896.626   106734554.897          50.000    20310899.199    83169833.074          44.000  
G12  21712057.679   114097879.428          45.000    21712059.323    88907564.051          40.000  
G23  20933280.450   110005247.595          45.000    20933283.952    85718441.220          44.000  
G24  24004734.737   126145954.739          37.000    24004740.420    98295681.086          36.000  
G25  20531466.253   107893832.019          46.000    20531471.953    84073261.583          41.000  
G28  22019344.406   115712649.081          43.000    22019347.711    90165810.275          42.000  
G31  24456392.662   128519233.060          37.000    24456397.397   100144879.315          29.000  
G32  21714927.570   114112870.562          47.000    21714931.733    88919216.648          42.000  
R 5  22474064.938   120137028.092          45.000                                                  
R 6  19681245.024   105022907.571          40.000                                                  
R 7  21775960.719   116568466.607          50.000                                                  
R 9  19714283.543   105273362.826          51.000    19714284.383    81879203.2701         25.000  
R10  22953156.513   122353304.142          39.000                                                  
R15  24144871.299   129023129.511          40.000                                                  
R16  19953892.882   106590384.431          52.000                                                  
C 1  37080702.123   193088964.973          45.000    37080703.195   156900634.639          34.000  
C 2  37748307.816   196565299.223          41.000    37748307.816   159725509.792          32.000  
C 3  36792769.425   191589602.657          46.000    36792768.728   155682273.973          36.000  
C 4  38424825.148   200088124.899          41.000    38424824.165   162588100.029          31.000  
C 5  40179331.227   209224344.233          36.000                                                  
C 6  36435830.813   189731052.898          45.000    36435827.525   154172054.266          38.000  
C 8  36244230.786   188733286.426          46.000    36244226.462   153361216.185          38.000  
C 9  37574733.827   195661597.432          44.000    37574731.933   158991087.739          35.000  
C13  35954079.399   187222405.883          48.000    35954081.900   152133510.550          39.000  
C14  25749743.699   134085791.439          37.000    25749741.233   108955742.916          31.000  
C16  36888829.772   192090086.924          47.000    36888830.183   156088997.600          37.000  
C23  22408315.028   116686058.300          50.000    22408308.881    94816990.215          42.000  
C24  25855652.951   134637387.960          39.000    25855656.222   109405958.715          32.000  
C25  21963789.792   114371451.785          50.000    21963790.221    92937877.197          41.000  
C32  24307732.826   126576805.061          46.000    24307736.454   102854063.718          37.000  
C33  23994453.169   124945683.129          47.000    23994466.804   101530735.589          38.000  
> 2024  6 26 12 49 46.0000000  0 31                     
G10  20310844.610   106734281.973          50.000    20310847.915    83169620.417          44.000  
G12  21712183.817   114098542.015          45.000    21712185.925    88908080.368          40.000  
G23  20933729.016   110007605.844          45.000    20933731.786    85720278.817          44.000  
G24  24005344.857   126149162.209          37.000    24005351.737    98298180.390          36.000  
G25  20531228.845   107892585.066          46.000    20531234.563    84072289.908          42.000  
G28  22018998.980   115710834.703          43.000    22019001.749    90164396.480          42.000  
G31  24455815.314   128516199.010          37.000    24455819.906   100142515.121          28.000  
G32  21714630.050   114111307.989          47.000    21714633.106    88917999.061          42.000  
R 5  22474548.474   120139612.814          45.000                                                  
R 6  19681099.570   105022130.708          40.000                                                  
R 7  21775380.029   116565359.714          50.000                                                  
R 9  19713892.426   105271274.494          51.000    19713891.425    81877567.678          25.000  
R10  22952376.548   122349145.764          39.000                                                  
R15  24145656.857   129027327.098          41.000                                                  
R16  19954303.297   106592577.183          52.000                                                  
C 1  37080712.487   193089019.802          45.000    37080713.667   156900679.244          35.000  
C 2  37748314.606   196565334.226          41.000    37748314.445   159725538.294          33.000  
C 3  36792779.682   191589657.379          46.000    36792779.396   155682318.425          37.000  
C 4  38424834.976   200088176.099          41.000    38424833.993   162588141.640          31.000  
C 5  40179332.853   209224353.233          36.000    40179335.319   170011985.7701         27.000  
C 6  36435855.419   189731180.217          45.000    36435851.720   154172157.736          38.000  
C 8  36244421.002   188734276.947          46.000    36244416.892   153362021.079          39.000  
C 9  37574749.337   195661677.794          44.000    37574747.390   158991153.042          36.000  
C13  35954215.561   187223114.568          48.000    35954217.884   152134086.415          39.000  
C14  25750266.797   134088515.634          36.000    25750264.331   108957956.610          30.000  
C16  36888869.870   192090295.568          47.000    36888870.085   156089167.150          37.000  
C23  22408010.719   116684473.375          50.000    22408004.625    94815702.341          42.000  
C24  25856242.004   134640453.775          39.000    25856244.952   109408449.943          33.000  
C25  21964058.631   114372851.173          49.000    21964058.899    92939014.321          42.000  
C32  24307232.351   126574198.488          46.000    24307235.996   102851945.697          38.000  
C33  23994866.051   124947831.804          47.000    23994879.310   101532481.579          37.000  
> 2024  6 26 12 49 47.0000000  0 31                     
G10  20310793.040   106734010.261          50.000    20310795.809    83169408.682          44.000  
G12  21712310.347   114099205.834          45.000    21712313.135    88908597.619          40.000  
G23  20934177.993   110009965.179          45.000    20934179.905    85722117.264          44.000  
G24  24005955.567   126152370.198          37.000    24005962.321    98300680.149          36.000  
G25  20530991.937   107891339.319          46.000    20530996.762    84071319.169          42.000  
G28  22018653.965   115709021.226          44.000    22018656.645    90162983.377          42.000  
G31  24455238.198   128513165.709          36.000    24455241.736   100140151.569          30.000  
G32  21714332.906   114109746.073          48.000    21714337.052    88916781.972          42.000  
R 5  22475032.331   120142198.462          45.000                                                  
R 6  19680954.099   105021354.854          40.000                                                  
R 7  21774799.983   116562253.440          51.000                                                  
R 9  19713501.613   105269187.423          52.000    19713501.648    81875938.584          25.000  
R10  22951596.690   122344988.228          39.000                                                  
R15  24146442.397   129031525.236          41.000                                                  
R16  19954714.035   106594771.151          52.000                                                  
C 1  37080722.958   193089075.186          45.000    37080724.227   156900724.198          34.000  
C 2  37748321.253   196565369.791          41.000    37748321.200   159725567.222          33.000  
C 3  36792790.510   191589712.647          46.000    36792789.921   155682363.356          37.000  
C 4  38424844.661   200088227.840          41.000    38424843.857   162588183.686          31.000  
C 5  40179335.105   209224362.765          37.000    40179337.071   170011993.548          29.000  
C 6  36435880.024   189731308.098          45.000    36435876.540   154172261.675          38.000  
C 8  36244611.253   188735268.235          46.000    36244607.126   153362826.567          38.000  
C 9  37574764.991   195661758.750          44.000    37574763.132   158991218.797          36.000  
C13  35954351.633   187223823.980          48.000    35954354.153   152134662.877          39.000  
C14  25750790.038   134091240.591          37.000    25750787.554   108960170.844          32.000  
C16  36888909.861   192090504.768          48.000    36888910.487   156089337.177          36.000  
C23  22407706.499   116682889.422          50.000    22407700.602    94814415.251          42.000  
C24  25856830.967   134643520.174          39.000    25856833.862   109410941.679          33.000  
C25  21964327.346   114374251.521          50.000    21964327.703    92940152.214          42.000  
C32  24306731.804   126571592.561          46.000    24306735.932   102849828.175          37.000  
C33  23995278.647   124949981.327          47.000    23995292.245   101534228.246          38.000  
> 2024  6 26 12 49 48.0000000  0 31                     
G10  20310739.039   106733726.417          50.000    20310741.452    83169187.508          44.000  
G12  21712434.216   114099857.551          45.000    21712434.895    88909105.450          40.000  
G23  20934624.594   110012312.259          45.000    20934626.738    85723946.135          44.000  
G24  24006563.114   126155565.398          37.000    24006566.348    98303169.918          36.000  
G25  20530752.385   107890081.442          46.000    20530757.210    84070339.044          42.000  
G28  22018306.358   115707195.268          43.000    22018310.218    90161560.557          42.000  
G31  24454658.652   128510119.793          36.000    24454661.851   100137778.075          29.000  
G32  21714033.297   114108171.463          47.000    21714037.692    88915555.008          42.000  
R 5  22475513.580   120144771.473          45.000                                                  
R 6  19680806.518   105020566.548          40.000                                                  
R 7  21774217.220   116559134.190          50.000                                                  
R 9  19713108.441   105267088.067          51.000    19713112.783    81874315.397          25.000  
R10  22950813.991   122340817.934          39.000                                                  
R15  24147225.668   129035710.419          40.000                                                  
R16  19955122.413   106596952.798          52.000                                                  
C 1  37080731.017   193089117.898          45.000    37080732.340   156900758.894          35.000  
C 2  37748325.453   196565392.675          41.000    37748325.453   159725585.784          32.000  
C 3  36792798.820   191589755.257          46.000    36792798.141   155682397.971          37.000  
C 4  38424852.416   200088266.918          41.000    38424851.522   162588215.379          32.000  
C 5  40179334.497   209224359.616          36.000    40179336.392   170011990.937          29.000  
C 6  36435902.128   189731423.327          45.000    36435898.697   154172355.292          37.000  
C 8  36244799.307   188736247.066          46.000    36244795.126   153363621.962          38.000  
C 9  37574778.089   195661827.053          44.000    37574775.712   158991274.299          36.000  
C13  35954485.347   187224520.947          48.000    35954487.938   152135229.217          39.000  
C14  25751311.134   134093953.039          36.000    25751308.525   108962374.904          31.000  
C16  36888947.779   192090701.301          47.000    36888947.958   156089496.881          36.000  
C23  22407399.866   116681293.224          50.000    22407394.023    94813118.219          42.000  
C24  25857417.232   134646573.924          39.000    25857420.341   109413423.080          32.000  
C25  21964594.059   114375639.581          50.000    21964594.327    92941280.131          42.000  
C32  24306228.898   126568974.046          46.000    24306233.222   102847700.405          38.000  
C33  23995689.241   124952118.475          47.000    23995702.804   101535964.851          37.000  
> 2024  6 26 12 49 49.0000000  0 31                     
G10  20310687.469   106733455.858          50.000    20310689.703    83168976.682          44.000  
G12  21712560.710   114100522.571          45.000    21712564.034    88909623.620          40.000  
G23  20935073.642   110014672.477          45.000    20935076.412    85725785.271          45.000  
G24  24007173.627   126158773.179          37.000    24007181.989    98305669.517          36.000  
G25  20530515.692   107888836.872          46.000    20530520.302    84069369.242          42.000  
G28  22017961.665   115705382.275          43.000    22017964.899    90160147.842          42.000  
G31  24454081.089   128507086.732          36.000    24454086.146   100135414.649          29.000  
G32  21713736.117   114106609.600          47.000    21713739.548    88914337.992          42.000  
R 5  22475997.366   120147357.727          45.000                                                  
R 6  19680661.190   105019791.528          40.000                                                  
R 7  21773636.781   116556027.874          50.000                                                  
R 9  19712717.806   105265002.267          51.000    19712722.166    81872692.461          24.000  
R10  22950034.187   122336660.746          39.000                                                  
R15  24148011.154   129039908.501          40.000                                                  
R16  19955533.365   106599147.960          52.000                                                  
C 1  37080741.775   193089173.123          44.000    37080742.972   156900803.797          35.000  
C 2  37748332.404   196565428.060          40.000    37748332.118   159725614.504          31.000  
C 3  36792809.273   191589810.365          45.000    36792808.701   155682442.769          37.000  
C 4  38424862.405   200088318.502          41.000    38424861.261   162588257.337          32.000  
C 5  40179336.374   209224368.993          36.000    40179338.035   170011998.555          28.000  
C 6  36435926.770   189731551.104          45.000    36435923.321   154172459.116          38.000  
C 8  36244989.737   188737238.576          46.000    36244985.359   153364427.645          38.000  
C 9  37574794.046   195661907.913          44.000    37574791.258   158991340.018          36.000  
C13  35954621.866   187225230.594          48.000    35954624.404   152135805.855          39.000  
C14  25751833.928   134096678.182          36.000    25751831.891   108964589.313          32.000  
C16  36888987.913   192090910.364          47.000    36888988.020   156089666.760          37.000  
C23  22407095.861   116679709.971          50.000    22407089.946    94811831.694          42.000  
C24  25858006.534   134649640.236          39.000    25858009.125   109415914.693          32.000  
C25  21964863.274   114377040.548          49.000    21964863.274    92942418.534          42.000  
C32  24305728.690   126566368.147          45.000    24305732.586   102845582.899          38.000  
C33  23996102.016   124954268.450          47.000    23996115.578   101537711.889          38.000  
> 2024  6 26 12 49 50.0000000  0 31                     
G10  20310636.257   106733186.567          50.000    20310638.973    83168766.872          44.000  
G12  21712687.509   114101188.861          45.000    21712688.921    88910142.871          40.000  
G23  20935523.406   110017033.842          45.000    20935525.032    85727625.282          45.000  
G24  24007784.640   126161981.578          37.000    24007792.234    98308169.518          36.000  
G25  20530279.053   107887593.555          46.000    20530283.109    84068400.426          42.000  
G28  22017616.775   115703570.227          43.000    22017620.795    90158735.870          42.000  
G31  24453504.599   128504054.475          37.000    24453507.351   100133051.893          29.000  
G32  21713439.187   114105048.444          48.000    21713442.154    88913121.470          43.000  
R 5  22476481.616   120149944.974          45.000                                                  
R 6  19680516.379   105019017.617          40.000                                                  
R 7  21773056.770   116552922.225          51.000                                                  
R 9  19712327.457   105262917.802          52.000    19712334.229    81871074.402          24.000  
R10  22949254.508   122332504.427          39.000                                                  
R15  24148796.927   129044107.287          41.000                                                  
R16  19955944.621   106601344.444          52.000                                                  
C 1  37080752.657   193089228.967          44.000    37080753.854   156900849.179          35.000  
C 2  37748339.408   196565464.082          41.000    37748339.051   159725643.820          34.000  
C 3  36792819.923   191589866.087          46.000    36792819.512   155682488.029          37.000  
C 4  38424872.554   200088370.682          41.000    38424871.178   162588299.861          29.000  
C 5  40179337.374   209224378.978          36.000    40179339.876   170012006.839          30.000  
C 6  36435951.429   189731679.496          46.000    36435947.819   154172563.441          38.000  
C 8  36245180.275   188738230.902          46.000    36245176.111   153365233.975          39.000  
C 9  37574809.342   195661989.391          44.000    37574807.108   158991406.221          37.000  
C13  35954758.189   187225941.050          48.000    35954760.905   152136383.165          39.000  
C14  25752357.151   134099404.090          37.000    25752355.471   108966804.389          32.000  
C16  36889028.404   192091120.035          48.000    36889028.494   156089837.115          37.000  
C23  22406791.873   116678127.742          50.000    22406786.083    94810546.004          42.000  
C24  25858595.318   134652707.211          40.000    25858598.124   109418406.935          33.000  
C25  21965132.363   114378442.498          50.000    21965132.542    92943557.736          42.000  
C32  24305228.322   126563762.935          46.000    24305231.878   102843465.958          38.000  
C33  23996514.933   124956419.334          47.000    23996528.496   101539459.640          38.000  
> 2024  6 26 12 49 51.0000000  0 31                     
G10  20310582.024   106732901.649          50.000    20310585.330    83168544.820          47.000  
G12  21712811.556   114101839.572          45.000    21712813.914    88910649.868          43.000  
G23  20935969.631   110019379.423          45.000    20935972.150    85729452.998          47.000  
G24  24008391.633   126165173.654          37.000    24008401.068    98310656.836          38.000  
G25  20530039.554   107886334.606          46.000    20530045.022    84067419.395          44.000  
G28  22017269.044   115701742.209          43.000    22017272.421    90157311.420          45.000  
G31  24452924.088   128501006.165          36.000    24452926.500   100130676.572          31.000  
G32  21713139.023   114103471.116          47.000    21713143.473    88911892.384          45.000  
R 5  22476962.579   120152516.007          45.000                                                  
R 6  19680368.281   105018227.601          40.000                                                  
R 7  21772473.579   116549800.006          50.000                                                  
R 9  19711934.178   105260817.515          51.000    19711940.360    81869450.825          25.000  
R10  22948471.988   122328331.796          39.000                                                  
R15  24149579.804   129048289.566          41.000                                                  
R16  19956352.874   106603525.040          52.000                                                  
C 1  37080760.251   193089268.652          44.000    37080761.627   156900881.436          37.000  
C 2  37748343.054   196565483.933          40.000    37748343.232   159725659.943          36.000  
C 3  36792827.249   191589905.656          45.000    36792827.446   155682520.187          40.000  
C 4  38424879.380   200088406.729          41.000    38424878.040   162588329.074          34.000  
C 5  40179336.517   209224372.814          36.000    40179338.804   170012001.676          32.000  
C 6  36435973.068   189731791.751          46.000    36435969.620   154172654.683          41.000  
C 8  36245367.703   188739207.297          46.000    36245363.861   153366027.388          41.000  
C 9  37574821.796   195662054.775          44.000    37574819.991   158991459.351          39.000  
C13  35954891.689   187226635.568          48.000    35954894.530   152136947.525          42.000  
C14  25752877.586   134102114.075          37.000    25752875.924   108969006.405          35.000  
C16  36889065.447   192091313.579          48.000    36889065.965   156089994.393          40.000  
C23  22406485.008   116676529.791          50.000    22406479.540    94809247.533          45.000  
C24  25859180.797   134655758.074          39.000    25859184.335   109420885.961          35.000  
C25  21965398.594   114379828.705          49.000    21965399.076    92944684.140          45.000  
C32  24304724.952   126561141.672          46.000    24304728.990   102841335.976          41.000  
C33  23996925.009   124958554.374          47.000    23996938.983   101541194.544          40.000  
> 2024  6 26 12 49 52.0000000  0 31                     
G10  20310529.043   106732623.669          50.000    20310532.420    83168328.207          47.000  
G12  21712936.621   114102497.229          45.000    21712939.730    88911162.326          42.000  
G23  20936417.250   110021731.815          45.000    20936420.180    85731286.047          47.000  
G24  24009000.144   126168371.944          37.000    24009009.794    98313149.045          38.000  
G25  20529801.307   107885082.597          46.000    20529806.471    84066443.794          44.000  
G28  22016921.974   115699920.814          43.000    22016925.351    90155892.133          45.000  
G31  24452345.132   128497964.315          36.000    24452348.777   100128306.279          31.000  
G32  21712839.950   114101900.165          47.000    21712844.345    88910668.277          45.000  
R 5  22477444.828   120155093.816          45.000                                                  
R 6  19680221.504   105017444.435          40.000                                                  
R 7  21771891.156   116546684.194          50.000                                                  
R 9  19711542.167   105258724.353          51.000    19711546.688    81867824.521          26.000  
R10  22947690.146   122324165.860          39.000                                                  
R15  24150363.540   129052478.282          40.000                                                  
R16  19956762.307   106605712.682          52.000                                                  
C 1  37080769.043   193089314.569          45.000    37080770.633   156900918.721          37.000  
C 2  37748348.128   196565510.004          41.000    37748348.379   159725681.119          35.000  
C 3  36792836.112   191589951.439          46.000    36792836.237   155682557.396          40.000  
C 4  38424887.439   200088448.991          42.000    38424886.224   162588363.401          33.000  
C 5  40179336.231   209224372.895          36.000    40179338.983   170012001.721          31.000  
C 6  36435995.780   189731910.257          46.000    36435992.474   154172750.974          41.000  
C 8  36245556.239   188740190.098          46.000    36245552.665   153366826.001          41.000  
C 9  37574835.323   195662126.411          44.000    37574833.876   158991517.571          39.000  
C13  35955026.278   187227336.507          48.000    35955029.227   152137517.098          42.000  
C14  25753398.915   134104830.402          37.000    25753397.539   108971213.669          35.000  
C16  36889103.794   192091513.363          48.000    36889104.312   156090156.736          40.000  
C23  22406179.448   116674938.504          50.000    22406173.908    94807954.489          45.000  
C24  25859767.919   134658815.207          39.000    25859771.315   109423370.113          35.000  
C25  21965666.129   114381221.511          50.000    21965666.611    92945815.916          45.000  
C32  24304222.921   126558526.722          46.000    24304226.942   102839211.122          41.000  
C33  23997336.336   124960695.948          48.000    23997350.381   101542934.755          41.000  
> 2024  6 26 12 49 53.0000000  0 31                     
G10  20310479.188   106732361.338          50.000    20310482.101    83168123.791          47.000  
G12  21713064.813   114103170.558          45.000    21713066.922    88911687.033          42.000  
G23  20936867.656   110024099.733          45.000    20936870.319    85733131.177          47.000  
G24  24009611.837   126171585.265          37.000    24009619.395    98315652.942          38.000  
G25  20529565.954   107883846.255          46.000    20529570.671    84065480.427          44.000  
G28  22016578.352   115698114.732          43.000    22016582.391    90154484.812          45.000  
G31  24451769.302   128494937.667          37.000    24451771.876   100125947.870          31.000  
G32  21712543.985   114100344.309          48.000    21712548.202    88909455.908          45.000  
R 5  22477930.133   120157687.257          45.000                                                  
R 6  19680077.766   105016676.972          40.000                                                  
R 7  21771312.039   116543583.701          51.000                                                  
R 9  19711153.176   105256647.119          52.000    19711155.410    81866204.537          27.000  
R10  22946911.504   122320015.352          39.000                                                  
R15  24151150.188   129056682.275          40.000                                                  
R16  19957174.814   106607916.229          52.000                                                  
C 1  37080780.926   193089375.335          45.000    37080782.587   156900968.089          38.000  
C 2  37748355.901   196565550.980          41.000    37748356.009   159725714.420          36.000  
C 3  36792847.691   191590012.101          46.000    36792847.673   155682606.682          39.000  
C 4  38424898.268   200088506.105          42.000    38424897.249   162588409.837          34.000  
C 5  40179339.197   209224387.844          37.000    40179341.824   170012013.894          31.000  
C 6  36436021.297   189732043.631          46.000    36436018.331   154172859.353          41.000  
C 8  36245748.009   188741187.946          46.000    36245744.257   153367636.832          41.000  
C 9  37574852.102   195662212.961          44.000    37574850.440   158991587.904          39.000  
C13  35955163.834   187228052.508          48.000    35955166.764   152138098.910          42.000  
C14  25753923.514   134107561.788          36.000    25753922.102   108973433.165          35.000  
C16  36889145.000   192091727.986          48.000    36889145.768   156090331.132          40.000  
C23  22405876.800   116673362.483          50.000    22405871.368    94806673.845          45.000  
C24  25860357.776   134661887.241          39.000    25860361.403   109425866.444          35.000  
C25  21965936.469   114382629.576          50.000    21965937.005    92946960.082          45.000  
C32  24303723.500   126555926.720          46.000    24303727.628   102837098.401          41.000  
C33  23997750.487   124962852.677          48.000    23997764.710   101544687.281          40.000  
> 2024  6 26 12 49 54.0000000  0 31                     
G10  20310427.046   106732087.199          50.000    20310429.673    83167910.183          46.000  
G12  21713190.593   114103832.106          45.000    21713193.184    88912202.492          42.000  
G23  20937315.990   110026455.702          45.000    20937318.885    85734966.993          47.000  
G24  24010220.795   126174786.094          37.000    24010227.460    98318147.072          38.000  
G25  20529328.707   107882598.088          46.000    20529333.585    84064507.845          44.000  
G28  22016232.533   115696296.521          43.000    22016235.214    90153068.004          45.000  
G31  24451191.722   128491898.755          37.000    24451194.277   100123579.873          30.000  
G32  21712245.394   114098776.099          48.000    21712249.396    88908233.944          45.000  
R 5  22478412.954   120160268.394          45.000                                                  
R 6  19679931.365   105015897.310          40.000                                                  
R 7  21770730.706   116540470.540          51.000                                                  
R 9  19710761.934   105254557.937          52.000    19710764.043    81864580.975          26.000  
R10  22946131.020   122315852.520          39.000                                                  
R15  24151934.388   129060873.661          40.000                                                  
R16  19957585.265   106610107.773          52.000                                                  
C 1  37080790.235   193089423.747          45.000    37080791.826   156901007.449          38.000  
C 2  37748361.298   196565579.590          41.000    37748361.548   159725737.675          36.000  
C 3  36792857.019   191590060.404          46.000    36792857.055   155682645.935          39.000  
C 4  38424906.809   200088550.876          42.000    38424905.934   162588446.175          35.000  
C 5  40179340.019   209224390.397          36.000    40179342.324   170012016.023          28.000  
C 6  36436044.419   189732164.664          46.000    36436041.542   154172957.698          40.000  
C 8  36245937.331   188742173.658          46.000    36245933.686   153368437.803          41.000  
C 9  37574866.290   195662287.179          44.000    37574864.896   158991648.212          39.000  
C13  35955298.924   187228756.337          48.000    35955301.944   152138670.821          42.000  
C14  25754445.825   134110280.997          37.000    25754444.271   108975642.719          34.000  
C16  36889183.793   192091930.271          48.000    36889184.544   156090495.510          39.000  
C23  22405571.758   116671774.544          50.000    22405566.469    94805383.512          45.000  
C24  25860945.256   134664946.961          39.000    25860949.169   109428352.706          35.000  
C25  21966204.469   114384025.678          50.000    21966205.041    92948094.534          44.000  
C32  24303221.809   126553314.454          46.000    24303225.991   102834975.723          41.000  
C33  23998162.225   124964997.368          48.000    23998176.573   101546430.011          41.000  
> 2024  6 26 12 49 55.0000000  0 31                     
G10  20310373.350   106731805.240          50.000    20310376.191    83167690.479          46.000  
G12  21713315.158   114104485.851          45.000    21713318.518    88912711.911          42.000  
G23  20937762.609   110028803.710          45.000    20937765.986    85736796.611          46.000  
G24  24010828.592   126177978.410          37.000    24010835.061    98320634.561          38.000  
G25  20529089.548   107881342.111          46.000    20529094.640    84063529.167          44.000  
G28  22015885.195   115694470.162          43.000    22015888.322    90151644.894          44.000  
G31  24450611.086   128488851.568          37.000    24450614.195   100121205.419          30.000  
G32  21711945.408   114097199.505          47.000    21711949.608    88907005.432          45.000  
R 5  22478894.167   120162841.265          45.000                                                  
R 6  19679783.946   105015109.534          40.000                                                  
R 7  21770147.336   116537348.820          50.000                                                  
R 9  19710369.227   105252460.853          51.000    19710368.029    81862948.8191         26.000  
R10  22945347.946   122311681.327          39.000                                                  
R15  24152716.962   129065056.486          40.000                                                  
R16  19957993.948   106612291.374          52.000                                                  
C 1  37080797.705   193089463.760          45.000    37080799.706   156901039.959          38.000  
C 2  37748365.318   196565599.782          41.000    37748365.569   159725754.096          36.000  
C 3  36792865.132   191590100.311          46.000    36792864.792   155682678.355          39.000  
C 4  38424913.975   200088587.226          41.000    38424912.867   162588475.738          34.000  
C 5  40179338.393   209224384.564          37.000    40179341.091   170012011.217          31.000  
C 6  36436066.077   189732277.331          46.000    36436063.289   154173049.249          41.000  
C 8  36246125.010   188743151.172          46.000    36246121.472   153369232.128          41.000  
C 9  37574878.941   195662353.046          44.000    37574877.244   158991701.716          40.000  
C13  35955432.602   187229451.969          48.000    35955435.264   152139236.063          42.000  
C14  25754966.493   134112991.976          37.000    25754964.938   108977845.590          35.000  
C16  36889221.086   192092124.178          48.000    36889221.711   156090653.057          40.000  
C23  22405265.411   116670178.631          50.000    22405259.997    94804086.706          45.000  
C24  25861531.538   134667998.330          39.000    25861535.094   109430832.191          35.000  
C25  21966471.218   114385413.776          50.000    21966471.682    92949222.465          45.000  
C32  24302718.457   126550693.880          46.000    24302722.638   102832846.297          41.000  
C33  23998572.533   124967133.955          48.000    23998586.775   101548166.156          41.000  
> 2024  6 26 12 49 56.0000000  0 31                     
G10  20310322.781   106731539.203          50.000    20310326.462    83167483.164          46.000  
G12  21713442.368   114105155.534          45.000    21713445.084    88913233.728          42.000  
G23  20938212.479   110031167.513          45.000    20938215.267    85738638.537          46.000  
G24  24011438.891   126181185.965          37.000    24011446.128    98323133.957          38.000  
G25  20528853.444   107880102.060          46.000    20528859.055    84062562.891          44.000  
G28  22015540.412   115692659.387          43.000    22015544.218    90150233.922          44.000  
G31  24450034.149   128485819.860          37.000    24450037.437   100118843.042          31.000  
G32  21711648.443   114095638.284          47.000    21711652.410    88905788.901          45.000  
R 5  22479378.364   120165430.032          45.000                                                  
R 6  19679639.135   105014337.712          40.000                                                  
R 7  21769566.718   116534242.657          50.000                                                  
R 9  19709979.628   105250380.002          51.000    19709977.323    81861324.290          27.000  
R10  22944568.499   122307525.878          39.000                                                  
R15  24153502.770   129069254.861          41.000                                                  
R16  19958405.703   106614491.171          52.000                                                  
C 1  37080808.229   193089518.898          45.000    37080810.195   156901084.772          38.000  
C 2  37748372.234   196565635.117          41.000    37748372.323   159725782.783          36.000  
C 3  36792875.603   191590155.314          46.000    36792875.263   155682723.069          39.000  
C 4  38424923.785   200088638.702          41.000    38424922.856   162588517.598          34.000  
C 5  40179340.198   209224393.863          36.000    40179343.003   170012018.792          31.000  
C 6  36436090.557   189732405.122          46.000    36436087.805   154173153.078          41.000  
C 8  36246315.601   188744144.025          46.000    36246312.045   153370038.895          41.000  
C 9  37574894.720   195662434.048          44.000    37574892.772   158991767.546          39.000  
C13  35955568.925   187230162.902          48.000    35955571.659   152139813.770          42.000  
C14  25755490.198   134115718.259          37.000    25755488.429   108980060.914          35.000  
C16  36889261.291   192092333.198          48.000    36889261.917   156090822.921          40.000  
C23  22404961.960   116668598.260          50.000    22404956.456    94802802.516          45.000  
C24  25862120.269   134671064.846          39.000    25862124.272   109433324.002          35.000  
C25  21966740.825   114386817.363          50.000    21966741.290    92950362.999          45.000  
C32  24302218.267   126548088.511          46.000    24302222.306   102830729.235          41.000  
C33  23998985.862   124969285.974          48.000    23999000.067   101549914.845          41.000  
> 2024  6 26 12 49 57.0000000  0 31                     
G10  20310273.837   106731282.151          50.000    20310276.607    83167282.868          46.000  
G12  21713571.436   114105834.225          45.000    21713573.866    88913762.580          42.000  
G23  20938664.315   110033540.168          45.000    20938666.424    85740487.365          46.000  
G24  24012051.173   126184401.789          37.000    24012057.784    98325639.807          38.000  
G25  20528619.163   107878870.995          46.000    20528624.506    84061603.608          44.000  
G28  22015197.685   115690857.263          44.000    22015201.240    90148829.660          44.000  
G31  24449459.481   128482796.688          37.000    24449461.822   100116487.367          31.000  
G32  21711352.979   114094085.491          48.000    21711357.821    88904578.914          44.000  
R 5  22479864.294   120168027.617          45.000                                                  
R 6  19679496.522   105013574.832          40.000                                                  
R 7  21768988.315   116531145.031          51.000                                                  
R 9  19709591.656   105248308.333          52.000    19709585.598    81859701.045          26.000  
R10  22943790.804   122303379.147          39.000                                                  
R15  24154290.293   129073461.764          41.000                                                  
R16  19958819.336   106616700.093          52.000                                                  
C 1  37080820.309   193089582.267          45.000    37080822.292   156901136.248          38.000  
C 2  37748380.471   196565678.696          41.000    37748380.704   159725818.209          36.000  
C 3  36792887.557   191590218.579          46.000    36792887.396   155682774.446          40.000  
C 4  38424934.828   200088698.443          42.000    38424934.578   162588566.113          32.000  
C 5  40179343.986   209224411.441          36.000    40179346.362   170012033.073          32.000  
C 6  36436116.592   189732541.174          46.000    36436113.858   154173263.636          41.000  
C 8  36246508.086   188745145.319          46.000    36246504.333   153370852.519          41.000  
C 9  37574912.088   195662523.354          45.000    37574910.105   158991840.112          39.000  
C13  35955707.124   187230882.293          48.000    35955709.965   152140398.330          42.000  
C14  25756015.547   134118452.946          36.000    25756013.582   108982283.125          34.000  
C16  36889303.033   192092550.493          48.000    36889303.712   156090999.491          39.000  
C23  22404660.116   116667026.565          50.000    22404654.559    94801525.386          45.000  
C24  25862710.679   134674139.657          39.000    25862714.575   109435822.536          35.000  
C25  21967011.881   114388229.598          50.000    21967012.488    92951510.556          45.000  
C32  24301719.418   126545491.496          46.000    24301723.563   102828618.914          41.000  
C33  23999400.566   124971446.538          48.000    23999415.004   101551670.488          41.000  
> 2024  6 26 12 49 58.0000000  0 31                     
G10  20310222.124   106731010.116          50.000    20310225.234    83167070.893          46.000  
G12  21713697.806   114106497.941          45.000    21713699.378    88914279.776          42.000  
G23  20939113.006   110035897.703          45.000    20939115.365    85742324.399          46.000  
G24  24012660.435   126187601.986          37.000    24012668.083    98328133.465          38.000  
G25  20528382.202   107877624.934          46.000    20528387.813    84060632.656          44.000  
G28  22014851.687   115689039.842          44.000    22014855.010    90147413.478          44.000  
G31  24448881.114   128479758.047          37.000    24448883.598   100114119.599          31.000  
G32  21711054.530   114092517.155          48.000    21711059.069    88903356.873          45.000  
R 5  22480347.436   120170609.667          45.000                                                  
R 6  19679350.568   105012796.535          40.000                                                  
R 7  21768407.000   116528031.508          51.000                                                  
R 9  19709200.860   105246221.486          52.000    19709198.144    81858077.157          26.000  
R10  22943010.124   122299216.800          39.000                                                  
R15  24155074.761   129077652.804          41.000                                                  
R16  19959230.002   106618893.797          52.000                                                  
C 1  37080829.619   193089630.137          45.000    37080831.531   156901175.180          38.000  
C 2  37748385.868   196565706.773          41.000    37748385.921   159725841.007          36.000  
C 3  36792896.867   191590266.356          46.000    36792896.724   155682813.292          39.000  
C 4  38424943.923   200088742.684          41.000    38424943.191   162588602.070          35.000  
C 5  40179344.522   209224413.494          36.000    40179346.738   170012034.776          31.000  
C 6  36436139.733   189732661.753          46.000    36436136.963   154173361.640          41.000  
C 8  36246697.444   188746131.283          46.000    36246693.656   153371653.703          41.000  
C 9  37574926.366   195662597.174          44.000    37574924.204   158991900.106          40.000  
C13  35955842.231   187231586.395          48.000    35955845.198   152140970.466          42.000  
C14  25756537.716   134121172.329          37.000    25756535.929   108984492.783          34.000  
C16  36889341.809   192092752.283          48.000    36889342.149   156091163.451          40.000  
C23  22404355.324   116665439.786          50.000    22404349.910    94800236.009          45.000  
C24  25863298.124   134677199.014          39.000    25863302.180   109438308.530          35.000  
C25  21967280.095   114389626.718          50.000    21967280.720    92952645.835          45.000  
C32  24301217.727   126542879.052          46.000    24301222.123   102826496.125          41.000  
C33  23999812.608   124973591.903          48.000    23999827.046   101553413.771          41.000  
> 2024  6 26 12 49 59.0000000  0 31                     
G10  20310168.624   106730729.779          50.000    20310172.127    83166852.453          46.000  
G12  21713822.656   114107153.391          45.000    21713825.015    88914790.509          42.000  
G23  20939559.821   110038246.797          45.000    20939562.377    85744154.852          46.000  
G24  24013267.249   126190793.182          37.000    24013274.879    98330620.074          38.000  
G25  20528143.526   107876370.592          46.000    20528148.815    84059655.247          44.000  
G28  22014504.170   115687213.778          43.000    22014507.636    90145990.583          44.000  
G31  24448300.711   128476710.651          37.000    24448303.069   100111744.960          30.000  
G32  21710754.224   114090939.986          48.000    21710758.637    88902127.903          45.000  
R 5  22480828.953   120173182.998          45.000                                                  
R 6  19679203.024   105012009.632          41.000                                                  
R 7  21767823.434   116524908.919          50.000                                                  
R 9  19708808.457   105244126.286          51.000    19708807.671    81856447.7871         26.000  
R10  22942227.568   122295045.619          39.000                                                  
R15  24155857.567   129081834.826          40.000                                                  
R16  19959639.023   106621079.077          52.000                                                  
C 1  37080837.481   193089669.148          44.000    37080838.750   156901206.858          38.000  
C 2  37748389.728   196565725.985          41.000    37748389.728   159725856.618          35.000  
C 3  36792904.247   191590305.248          45.000    36792904.283   155682844.909          40.000  
C 4  38424950.999   200088778.011          41.000    38424949.945   162588630.745          34.000  
C 5  40179343.432   209224406.675          37.000    40179345.326   170012029.200          31.000  
C 6  36436161.426   189732773.467          46.000    36436158.459   154173452.410          41.000  
C 8  36246884.997   188747108.573          46.000    36246881.388   153372447.843          41.000  
C 9  37574938.624   195662662.159          44.000    37574936.801   158991952.910          40.000  
C13  35955975.927   187232281.795          48.000    35955978.858   152141535.547          42.000  
C14  25757058.616   134123883.012          36.000    25757056.525   108986695.489          34.000  
C16  36889378.727   192092945.202          48.000    36889379.209   156091320.232          40.000  
C23  22404049.049   116663844.573          50.000    22404043.635    94798939.773          45.000  
C24  25863883.799   134680249.520          40.000    25863888.052   109440787.288          35.000  
C25  21967546.754   114391015.362          50.000    21967547.505    92953774.229          45.000  
C32  24300714.357   126540257.841          46.000    24300718.610   102824366.177          41.000  
C33  24000223.148   124975728.703          48.000    24000237.176   101555150.088          41.000  
> 2024  6 26 12 50  0.0000000  0 31                     
G10  20310118.412   106730465.831          50.000    20310121.540    83166646.768          46.000  
G12  21713950.456   114107825.254          45.000    21713953.172    88915314.047          42.000  
G23  20940009.853   110040612.141          45.000    20940012.801    85745997.985          46.000  
G24  24013877.351   126194000.123          37.000    24013883.766    98333118.990          38.000  
G25  20527908.012   107875132.640          46.000    20527912.962    84058690.617          44.000  
G28  22014159.476   115685403.787          44.000    22014163.497    90144580.203          44.000  
G31  24447723.899   128473679.234          37.000    24447726.454   100109382.855          30.000  
G32  21710457.097   114089378.645          48.000    21710460.618    88900911.265          44.000  
R 5  22481313.382   120175772.726          45.000                                                  
R 6  19679058.624   105011239.172          40.000                                                  
R 7  21767242.976   116521802.403          50.000                                                  
R 9  19708419.234   105242047.791          51.000    19708416.482    81854819.900          26.000  
R10  22941448.032   122290890.655          39.000                                                  
R15  24156643.179   129086032.884          40.000                                                  
R16  19960051.172   106623281.040          52.000                                                  
C 1  37080847.863   193089723.747          44.000    37080849.292   156901251.210          38.000  
C 2  37748396.482   196565760.767          41.000    37748396.482   159725884.922          36.000  
C 3  36792914.754   191590359.730          46.000    36792914.718   155682889.181          39.000  
C 4  38424960.631   200088828.952          41.000    38424959.845   162588672.177          34.000  
C 5  40179345.540   209224415.445          36.000    40179347.006   170012036.374          32.000  
C 6  36436185.871   189732900.804          46.000    36436182.886   154173555.863          41.000  
C 8  36247075.767   188748101.685          46.000    36247071.997   153373254.811          41.000  
C 9  37574953.973   195662742.763          44.000    37574952.294   158992018.414          39.000  
C13  35956112.536   187232992.983          48.000    35956115.288   152142113.429          42.000  
C14  25757582.125   134126609.455          36.000    25757580.106   108988910.935          34.000  
C16  36889418.843   192093153.730          48.000    36889419.379   156091489.681          40.000  
C23  22403745.740   116662265.374          50.000    22403740.415    94797656.533          45.000  
C24  25864472.958   134683315.683          39.000    25864476.550   109443278.792          35.000  
C25  21967816.666   114392419.990          50.000    21967817.220    92954915.600          45.000  
C32  24300214.113   126537652.306          45.000    24300218.134   102822248.952          41.000  
C33  24000636.513   124977881.390          47.000    24000650.665   101556899.325          41.000  
> 2024  6 26 12 50  1.0000000  0 31                     
G10  20310068.612   106730203.330          50.000    20310071.167    83166442.240          46.000  
G12  21714078.666   114108498.575          45.000    21714081.722    88915838.725          42.000  
G23  20940460.223   110042978.806          45.000    20940463.154    85747842.137          46.000  
G24  24014487.829   126197207.757          37.000    24014493.493    98335618.447          38.000  
G25  20527672.713   107873896.122          46.000    20527677.805    84057727.122          44.000  
G28  22013815.462   115683594.905          44.000    22013819.268    90143170.691          44.000  
G31  24447147.533   128470648.788          37.000    24447149.874   100107021.494          30.000  
G32  21710160.239   114087818.184          48.000    21710163.277    88899695.315          44.000  
R 5  22481798.151   120178363.642          45.000                                                  
R 6  19678914.511   105010469.981          40.000                                                  
R 7  21766662.983   116518696.744          51.000                                                  
R 9  19708030.225   105239970.793          52.000    19708027.509    81853195.402          25.000  
R10  22940668.817   122286736.744          40.000                                                  
R15  24157428.719   129090231.799          40.000                                                  
R16  19960463.715   106625484.452          52.000                                                  
C 1  37080858.424   193089779.105          45.000    37080859.710   156901296.224          38.000  
C 2  37748403.219   196565796.335          41.000    37748403.362   159725913.812          36.000  
C 3  36792925.243   191590414.975          46.000    36792925.368   155682934.081          40.000  
C 4  38424970.101   200088880.647          41.000    38424969.905   162588714.214          34.000  
C 5  40179347.274   209224424.997          37.000    40179348.936   170012044.114          32.000  
C 6  36436210.298   189733028.909          46.000    36436207.403   154173659.998          41.000  
C 8  36247266.662   188749095.745          46.000    36247263.016   153374062.580          42.000  
C 9  37574969.466   195662824.183          44.000    37574967.858   158992084.577          40.000  
C13  35956249.198   187233705.155          48.000    35956252.022   152142692.136          42.000  
C14  25758105.348   134129336.851          36.000    25758103.793   108991127.166          34.000  
C16  36889458.851   192093363.023          48.000    36889459.709   156091659.751          40.000  
C23  22403442.664   116660687.367          50.000    22403437.267    94796374.280          45.000  
C24  25865062.118   134686382.635          39.000    25865065.727   109445770.961          36.000  
C25  21968086.577   114393825.779          50.000    21968087.238    92956057.914          45.000  
C32  24299713.727   126535047.629          46.000    24299717.998   102820132.457          41.000  
C33  24001050.055   124980035.156          48.000    24001064.261   101558649.444          41.000  
> 2024  6 26 12 50  2.0000000  0 31                     
G10  20310016.398   106729928.443          50.000    20310019.132    83166228.017          46.000  
G12  21714204.249   114109159.524          45.000    21714206.412    88916353.711          42.000  
G23  20940908.325   110045332.935          45.000    20940910.844    85749676.521          46.000  
G24  24015095.501   126200402.362          37.000    24015101.790    98338107.733          38.000  
G25  20527435.055   107872647.232          46.000    20527438.986    84056753.927          44.000  
G28  22013468.964   115681773.293          44.000    22013472.520    90141751.254          44.000  
G31  24446567.826   128467605.477          37.000    24446571.275   100104650.065          30.000  
G32  21709860.790   114086244.789          48.000    21709864.203    88898469.315          44.000  
R 5  22482280.525   120180941.651          45.000                                                  
R 6  19678767.967   105009688.028          40.000                                                  
R 7  21766080.203   116515577.835          50.000                                                  
R 9  19707638.929   105237881.277          51.000    19707641.342    81851570.307          26.000  
R10  22939886.923   122282569.864          39.000                                                  
R15  24158211.990   129094417.498          40.000                                                  
R16  19960873.809   106627675.248          52.000                                                  
C 1  37080866.447   193089821.539          45.000    37080867.930   156901330.690          38.000  
C 2  37748407.650   196565818.981          41.000    37748407.847   159725932.209          36.000  
C 3  36792933.320   191590457.309          46.000    36792933.284   155682968.469          39.000  
C 4  38424977.678   200088919.430          42.000    38424977.463   162588745.672          34.000  
C 5  40179346.595   209224421.621          36.000    40179348.167   170012041.326          33.000  
C 6  36436232.384   189733144.123          45.000    36436229.489   154173753.608          41.000  
C 8  36247455.019   188750077.074          46.000    36247451.338   153374859.981          42.000  
C 9  37574982.671   195662892.699          44.000    37574980.956   158992140.250          40.000  
C13  35956383.573   187234404.582          48.000    35956386.361   152143260.476          42.000  
C14  25758627.373   134132051.483          36.000    25758625.086   108993333.013          34.000  
C16  36889496.734   192093559.405          48.000    36889497.180   156091819.332          40.000  
C23  22403137.157   116659096.860          50.000    22403131.671    94795081.865          45.000  
C24  25865648.883   134689436.723          40.000    25865652.439   109448252.683          36.000  
C25  21968354.237   114395219.023          50.000    21968354.791    92957190.032          45.000  
C32  24299211.000   126532430.123          46.000    24299215.181   102818005.505          41.000  
C33  24001461.150   124982176.294          47.000    24001475.445   101560389.296          41.000  
> 2024  6 26 12 50  3.0000000  0 31                     
G10  20309966.490   106729666.576          50.000    20309969.135    83166023.988          46.000  
G12  21714332.674   114109833.523          45.000    21714334.425    88916878.925          42.000  
G23  20941358.642   110047699.970          45.000    20941361.197    85751520.947          46.000  
G24  24015706.371   126203609.329          37.000    24015712.107    98340606.669          38.000  
G25  20527199.773   107871411.366          46.000    20527204.920    84055790.919          44.000  
G28  22013124.556   115679964.400          44.000    22013128.148    90140341.717          44.000  
G31  24445991.265   128464574.794          37.000    24445994.660   100102288.486          30.000  
G32  21709563.718   114084683.862          48.000    21709568.203    88897252.983          44.000  
R 5  22482764.972   120183532.623          45.000                                                  
R 6  19678623.835   105008919.135          40.000                                                  
R 7  21765499.692   116512471.558          50.000                                                  
R 9  19707250.064   105235805.024          51.000    19707249.778    81849944.7031         27.000  
R10  22939107.476   122278415.763          39.000                                                  
R15  24158997.601   129098615.789          40.000                                                  
R16  19961286.422   106629879.275          52.000                                                  
C 1  37080876.882   193089876.222          45.000    37080878.490   156901375.122          38.000  
C 2  37748414.476   196565853.892          41.000    37748414.315   159725960.567          34.000  
C 3  36792943.845   191590511.894          46.000    36792943.791   155683012.817          40.000  
C 4  38424987.631   200088970.479          41.000    38424987.238   162588787.108          34.000  
C 5  40179348.328   209224430.492          37.000    40179349.775   170012048.495          31.000  
C 6  36436257.061   189733271.600          46.000    36436253.987   154173857.188          41.000  
C 8  36247645.878   188751070.860          45.000    36247642.251   153375667.509          41.000  
C 9  37574998.324   195662973.497          44.000    37574996.502   158992205.895          40.000  
C13  35956520.289   187235116.471          48.000    35956523.166   152143838.939          42.000  
C14  25759150.632   134134778.537          37.000    25759148.684   108995548.993          34.000  
C16  36889536.760   192093768.055          48.000    36889537.243   156091988.868          40.000  
C23  22402834.295   116657519.039          50.000    22402828.613    94793799.754          45.000  
C24  25866237.524   134692503.110          39.000    25866241.241   109450744.322          35.000  
C25  21968624.310   114396624.919          49.000    21968624.631    92958332.447          45.000  
C32  24298711.078   126529824.957          46.000    24298715.027   102815888.599          41.000  
C33  24001874.746   124984329.993          48.000    24001889.060   101562139.357          41.000  
> 2024  6 26 12 50  4.0000000  0 31                     
G10  20309916.904   106729406.184          50.000    20309919.709    83165821.090          46.000  
G12  21714461.188   114110509.015          45.000    21714463.422    88917405.276          42.000  
G23  20941809.424   110050068.328          45.000    20941811.926    85753366.430          46.000  
G24  24016315.919   126206817.054          37.000    24016323.227    98343106.202          38.000  
G25  20526964.831   107870176.978          46.000    20526969.942    84054829.061          44.000  
G28  22012780.846   115678156.633          44.000    22012784.491    90138933.086          44.000  
G31  24445415.024   128461545.070          37.000    24445416.954   100099927.660          30.000  
G32  21709267.074   114083123.853          48.000    21709271.184    88896037.410          44.000  
R 5  22483249.955   120186124.793          45.000                                                  
R 6  19678479.918   105008151.490          40.000                                                  
R 7  21764919.878   116509366.130          51.000                                                  
R 9  19706861.573   105233730.337          52.000    19706860.447    81848322.752          25.000  
R10  22938328.797   122274262.778          39.000                                                  
R15  24159783.267   129102814.954          40.000                                                  
R16  19961699.375   106632084.817          52.000                                                  
C 1  37080887.621   193089931.717          45.000    37080889.140   156901420.256          38.000  
C 2  37748420.998   196565889.605          41.000    37748421.248   159725989.587          37.000  
C 3  36792954.495   191590567.281          46.000    36792954.423   155683057.833          39.000  
C 4  38424997.620   200089022.302          41.000    38424997.227   162588829.294          34.000  
C 5  40179350.401   209224440.161          37.000    40179351.812   170012056.420          32.000  
C 6  36436281.702   189733399.906          46.000    36436278.432   154173961.435          41.000  
C 8  36247837.077   188752065.649          46.000    36247833.271   153376475.854          42.000  
C 9  37575014.103   195663055.145          44.000    37575012.352   158992272.250          39.000  
C13  35956657.148   187235829.349          48.000    35956660.097   152144418.218          42.000  
C14  25759673.980   134137506.593          36.000    25759672.640   108997765.800          34.000  
C16  36889577.019   192093977.508          48.000    36889577.645   156092159.065          40.000  
C23  22402531.344   116655942.439          50.000    22402526.019    94792518.635          45.000  
C24  25866826.273   134695570.333          40.000    25866830.043   109453236.699          36.000  
C25  21968894.329   114398031.998          50.000    21968895.008    92959475.812          45.000  
C32  24298210.639   126527220.681          46.000    24298214.945   102813772.400          41.000  
C33  24002288.539   124986484.809          48.000    24002303.085   101563890.312          41.000  
> 2024  6 26 12 50  5.0000000  0 31                     
G10  20309864.869   106729133.160          50.000    20309868.282    83165608.335          46.000  
G12  21714587.254   114111171.898          45.000    21714590.435    88917921.809          42.000  
G23  20942257.704   110052423.912          45.000    20942260.349    85755201.960          46.000  
G24  24016923.984   126210011.462          37.000    24016933.687    98345595.358          37.000  
G25  20526727.584   107868929.943          46.000    20526732.445    84053857.352          44.000  
G28  22012434.115   115676335.898          43.000    22012437.993    90137514.311          44.000  
G31  24444835.228   128458502.278          37.000    24444838.177   100097556.640          31.000  
G32  21708967.714   114081550.663          48.000    21708971.592    88894811.530          44.000  
R 5  22483732.348   120188703.784          45.000                                                  
R 6  19678333.642   105007370.839          40.000                                                  
R 7  21764337.241   116506247.214          51.000                                                  
R 9  19706470.706   105231642.885          51.000    19706473.065    81846699.227          29.000  
R10  22937547.099   122270096.536          39.000                                                  
R15  24160566.412   129107000.599          40.000                                                  
R16  19962109.880   106634277.557          52.000                                                  
C 1  37080895.520   193089974.028          45.000    37080897.432   156901454.602          38.000  
C 2  37748425.180   196565912.152          41.000    37748425.358   159726007.942          36.000  
C 3  36792962.786   191590609.494          46.000    36792962.393   155683092.127          40.000  
C 4  38425004.874   200089060.943          42.000    38425004.535   162588860.693          33.000  
C 5  40179349.418   209224436.654          36.000    40179351.008   170012053.530          31.000  
C 6  36436303.735   189733515.039          46.000    36436300.751   154174055.005          41.000  
C 8  36248025.648   188753047.464          46.000    36248021.681   153377273.664          41.000  
C 9  37575026.951   195663123.661          44.000    37575025.360   158992327.920          40.000  
C13  35956791.523   187236529.250          48.000    35956794.400   152144986.933          42.000  
C14  25760195.809   134140221.658          36.000    25760194.004   108999971.973          34.000  
C16  36889614.669   192094173.797          48.000    36889615.277   156092318.583          40.000  
C23  22402226.194   116654353.095          50.000    22402220.887    94791227.165          45.000  
C24  25867413.074   134698624.403          40.000    25867416.362   109455718.409          35.000  
C25  21969162.185   114399426.298          50.000    21969162.650    92960608.792          45.000  
C32  24297708.179   126524603.329          46.000    24297712.414   102811645.608          41.000  
C33  24002700.009   124988626.755          48.000    24002714.555   101565630.805          41.000  
> 2024  6 26 12 50  6.0000000  0 31                     
G10  20309815.479   106728873.567          50.000    20309818.481    83165406.061          46.000  
G12  21714715.947   114111848.239          45.000    21714719.110    88918448.832          42.000  
G23  20942708.218   110054792.816          45.000    20942711.470    85757047.882          46.000  
G24  24017534.461   126213218.659          37.000    24017541.931    98348094.452          37.000  
G25  20526492.839   107867696.366          46.000    20526497.950    84052896.111          44.000  
G28  22012090.154   115674528.281          43.000    22012093.406    90136105.819          44.000  
G31  24444258.773   128455472.452          37.000    24444263.455   100095195.722          30.000  
G32  21708670.660   114079990.355          48.000    21708675.592    88893595.705          44.000  
R 5  22484217.259   120191296.183          45.000                                                  
R 6  19678190.011   105006603.633          40.000                                                  
R 7  21763756.766   116503141.371          51.000                                                  
R 9  19706082.359   105229569.113          51.000    19706086.790    81845085.774          25.000  
R10  22936767.652   122265943.509          39.000                                                  
R15  24161352.578   129111199.343          40.000                                                  
R16  19962522.834   106636483.965          52.000                                                  
C 1  37080906.116   193090029.020          45.000    37080908.171   156901499.252          37.000  
C 2  37748432.041   196565947.359          41.000    37748432.041   159726036.546          34.000  
C 3  36792973.436   191590664.369          46.000    36792972.900   155683136.710          39.000  
C 4  38425014.827   200089112.274          42.000    38425014.417   162588902.363          34.000  
C 5  40179350.472   209224445.828          37.000    40179352.813   170012061.067          32.000  
C 6  36436328.215   189733642.853          45.000    36436325.195   154174158.850          41.000  
C 8  36248216.561   188754042.152          45.000    36248212.809   153378081.920          41.000  
C 9  37575042.657   195663204.875          44.000    37575040.888   158992393.930          39.000  
C13  35956928.507   187237242.008          48.000    35956931.277   152145566.127          42.000  
C14  25760719.407   134142949.532          36.000    25760717.870   109002188.605          35.000  
C16  36889654.821   192094382.758          48.000    36889655.536   156092488.378          40.000  
C23  22401923.583   116652776.847          50.000    22401918.204    94789946.344          45.000  
C24  25868002.251   134701691.215          40.000    25868005.342   109458210.434          35.000  
C25  21969432.436   114400833.651          50.000    21969432.990    92961752.386          45.000  
C32  24297208.133   126521998.742          46.000    24297212.064   102809529.154          41.000  
C33  24003113.999   124990781.678          48.000    24003128.312   101567381.854          41.000  
> 2024  6 26 12 50  7.0000000  0 31                     
G10  20309766.375   106728615.380          50.000    20309769.699    83165204.867          46.000  
G12  21714845.086   114112525.994          45.000    21714847.034    88918976.934          42.000  
G23  20943159.429   110057162.973          45.000    20943162.020    85758894.737          46.000  
G24  24018145.510   126216426.548          37.000    24018152.140    98350594.133          37.000  
G25  20526258.112   107866464.176          46.000    20526263.222    84051935.975          44.000  
G28  22011746.676   115672721.735          43.000    22011750.428    90134698.084          44.000  
G31  24443683.051   128452443.628          37.000    24443686.125   100092835.628          30.000  
G32  21708374.052   114078430.896          48.000    21708378.162    88892380.569          44.000  
R 5  22484702.367   120193889.708          45.000                                                  
R 6  19678046.416   105005837.657          41.000                                                  
R 7  21763177.005   116500036.325          51.000                                                  
R 9  19705694.279   105227496.823          52.000    19705698.782    81843474.011          27.000  
R10  22935988.992   122261791.512          39.000                                                  
R15  24162138.547   129115398.908          40.000                                                  
R16  19962936.108   106638691.781          52.000                                                  
C 1  37080916.641   193090084.735          45.000    37080918.696   156901544.559          38.000  
C 2  37748438.992   196565983.290          41.000    37748439.564   159726065.736          36.000  
C 3  36792984.068   191590719.977          46.000    36792983.603   155683181.892          40.000  
C 4  38425024.370   200089164.320          42.000    38425024.441   162588944.639          31.000  
C 5  40179353.117   209224455.752          37.000    40179354.797   170012069.096          32.000  
C 6  36436353.017   189733771.420          46.000    36436350.158   154174263.326          41.000  
C 8  36248407.670   188755037.767          46.000    36248404.061   153378890.951          41.000  
C 9  37575058.329   195663286.862          45.000    37575056.667   158992460.542          40.000  
C13  35957065.437   187237955.715          48.000    35957068.404   152146146.051          42.000  
C14  25761243.291   134145678.351          37.000    25761241.969   109004405.982          35.000  
C16  36889695.026   192094592.467          48.000    36889695.848   156092658.779          40.000  
C23  22401620.953   116651201.754          50.000    22401615.735    94788666.447          45.000  
C24  25868591.089   134704758.769          39.000    25868594.627   109460703.079          35.000  
C25  21969702.813   114402242.135          50.000    21969703.438    92962896.904          45.000  
C32  24296708.015   126519394.972          46.000    24296712.071   102807413.385          41.000  
C33  24003527.810   124992937.610          48.000    24003542.319   101569133.733          41.000  
> 2024  6 26 12 50  8.0000000  0 31                     
G10  20309714.894   106728345.058          50.000    20309717.932    83164994.214          46.000  
G12  21714971.742   114113191.635          45.000    21714974.672    88919495.632          42.000  
G23  20943608.013   110059520.861          45.000    20943610.961    85760732.050          46.000  
G24  24018753.290   126219621.640          37.000    24018759.311    98353083.758          37.000  
G25  20526021.544   107865219.856          46.000    20526026.297    84050966.375          44.000  
G28  22011400.303   115670902.723          43.000    22011404.162    90133280.702          44.000  
G31  24443104.024   128449402.149          37.000    24443107.437   100090465.655          30.000  
G32  21708074.746   114076858.750          48.000    21708078.480    88891155.498          44.000  
R 5  22485185.278   120196470.589          45.000                                                  
R 6  19677900.729   105005059.190          41.000                                                  
R 7  21762594.421   116496918.286          50.000                                                  
R 9  19705303.805   105225412.260          51.000    19705307.040    81841852.506          25.000  
R10  22935207.794   122257626.779          39.000                                                  
R15  24162922.175   129119585.508          41.000                                                  
R16  19963347.149   106640887.235          52.000                                                  
C 1  37080924.878   193090127.776          44.000    37080927.219   156901579.547          38.000  
C 2  37748443.174   196566006.518          41.000    37748443.781   159726084.622          36.000  
C 3  36792992.234   191590762.922          46.000    36792992.091   155683216.783          39.000  
C 4  38425032.125   200089203.688          41.000    38425031.982   162588976.678          35.000  
C 5  40179352.277   209224452.993          37.000    40179354.135   170012066.852          32.000  
C 6  36436375.336   189733887.335          46.000    36436372.512   154174357.524          41.000  
C 8  36248596.385   188756020.879          46.000    36248592.883   153379689.812          42.000  
C 9  37575071.855   195663356.195          44.000    37575070.194   158992516.873          39.000  
C13  35957200.134   187238656.918          48.000    35957203.083   152146715.843          42.000  
C14  25761764.852   134148394.616          37.000    25761763.619   109006613.192          35.000  
C16  36889732.783   192094789.491          48.000    36889733.713   156092818.873          40.000  
C23  22401316.250   116649614.416          50.000    22401310.836    94787376.602          45.000  
C24  25869177.515   134707813.723          39.000    25869181.482   109463185.466          35.000  
C25  21969970.991   114403638.325          50.000    21969971.509    92964031.413          45.000  
C32  24296205.609   126516778.612          46.000    24296209.630   102805287.382          41.000  
C33  24003939.512   124995081.182          47.000    24003953.932   101570875.567          41.000  
> 2024  6 26 12 50  9.0000000  0 30                     
G10  20309665.879   106728087.930          50.000    20309669.489    83164793.884          46.000  
G12  21715100.881   114113870.496          45.000    21715102.883    88920024.619          42.000  
G23  20944059.259   110061891.813          45.000    20944061.814    85762579.550          46.000  
G24  24019363.356   126222829.233          37.000    24019369.145    98355583.195          38.000  
G25  20525787.066   107863988.731          46.000    20525792.123    84050007.048          44.000  
G28  22011056.485   115669096.576          43.000    22011060.881    90131873.303          44.000  
G31  24442527.372   128446373.475          37.000    24442531.286   100088105.622          30.000  
G32  21707777.977   114075299.238          48.000    21707782.569    88889940.277          44.000  
R 5  22485670.493   120199064.597          45.000                                                  
R 6  19677757.205   105004293.926          40.000                                                  
R 7  21762014.053   116493813.037          50.000                                                  
R 9  19704916.012   105223341.133          51.000    19704916.673    81840236.224          26.000  
R10  22934428.615   122253475.020          39.000                                                  
R16  19963760.621   106643096.095          52.000                                                  
C 1  37080935.832   193090183.233          44.000    37080937.583   156901624.596          38.000  
C 2  37748450.429   196566042.208          41.000    37748450.071   159726113.604          35.000  
C 3  36793002.455   191590818.272          45.000    36793002.652   155683261.752          39.000  
C 4  38425042.149   200089255.496          42.000    38425041.971   162589018.788          34.000  
C 5  40179354.064   209224462.644          36.000    40179356.012   170012074.689          31.000  
C 6  36436400.049   189734015.658          46.000    36436397.082   154174461.794          41.000  
C 8  36248787.619   188757016.634          45.000    36248784.099   153380498.939          41.000  
C 9  37575087.419   195663437.976          44.000    37575085.811   158992583.339          39.000  
C13  35957337.350   187239370.741          48.000    35957340.174   152147295.885          42.000  
C14  25762288.825   134151123.548          36.000    25762287.664   109008830.637          34.000  
C16  36889773.114   192094998.956          48.000    36889773.632   156092989.080          40.000  
C23  22401013.960   116648039.910          50.000    22401008.474    94786097.197          45.000  
C24  25869766.871   134710881.096          39.000    25869770.391   109465677.955          35.000  
C25  21970241.546   114405047.317          50.000    21970242.082    92965176.328          45.000  
C32  24295705.687   126514174.763          45.000    24295709.529   102803171.547          41.000  
C33  24004353.716   124997237.481          47.000    24004368.208   101572627.732          41.000  
> 2024  6 26 12 50 10.0000000  0 30                     
G10  20309617.151   106727831.856          50.000    20309620.385    83164594.322          46.000  
G12  21715230.021   114114550.437          45.000    21715232.505    88920554.418          42.000  
G23  20944510.613   110064263.672          45.000    20944513.615    85764427.726          46.000  
G24  24019973.905   126226037.210          37.000    24019981.606    98358082.924          37.000  
G25  20525553.179   107862758.675          46.000    20525558.414    84049048.569          44.000  
G28  22010713.114   115667291.151          44.000    22010716.259    90130466.490          44.000  
G31  24441950.703   128443345.368          37.000    24441954.027   100085746.022          30.000  
G32  21707481.476   114073740.236          48.000    21707485.407    88888725.503          44.000  
R 5  22486155.959   120201659.381          45.000                                                  
R 6  19677614.164   105003529.583          40.000                                                  
R 7  21761434.382   116490708.257          51.000                                                  
R 9  19704528.379   105221271.125          51.000    19704529.666    81838626.228          25.000  
R10  22933650.080   122249323.952          39.000                                                  
R16  19964174.467   106645306.040          52.000                                                  
C 1  37080946.714   193090239.092          45.000    37080948.055   156901669.979          38.000  
C 2  37748457.255   196566078.273          41.000    37748457.147   159726142.879          36.000  
C 3  36793013.194   191590873.999          46.000    36793013.444   155683307.059          40.000  
C 4  38425052.406   200089307.673          42.000    38425052.120   162589061.151          35.000  
C 5  40179355.958   209224472.708          37.000    40179358.013   170012082.869          32.000  
C 6  36436424.583   189734144.403          46.000    36436421.885   154174566.421          41.000  
C 8  36248978.907   188758012.979          46.000    36248975.441   153381308.556          42.000  
C 9  37575103.073   195663520.185          45.000    37575101.679   158992650.147          39.000  
C13  35957474.477   187240085.161          48.000    35957477.372   152147876.411          42.000  
C14  25762812.781   134153852.998          37.000    25762811.923   109011048.546          35.000  
C16  36889813.391   192095208.818          48.000    36889814.123   156093159.622          40.000  
C23  22400711.616   116646466.233          50.000    22400706.363    94784818.455          45.000  
C24  25870355.530   134713948.941          40.000    25870359.461   109468170.845          35.000  
C25  21970512.101   114406457.095          50.000    21970512.923    92966321.895          45.000  
C32  24295205.605   126511571.398          46.000    24295209.679   102801056.101          41.000  
C33  24004767.741   124999394.477          48.000    24004782.090   101574380.459          40.000  
> 2024  6 26 12 50 11.0000000  0 30                     
G10  20309566.063   106727563.160          50.000    20309569.297    83164384.951          46.000  
G12  21715357.105   114115217.769          45.000    21715358.642    88921074.405          42.000  
G23  20944959.697   110066622.784          45.000    20944962.663    85766265.993          46.000  
G24  24020581.898   126229231.841          37.000    24020588.885    98360572.258          37.000  
G25  20525316.629   107861515.995          46.000    20525322.204    84048080.259          44.000  
G28  22010367.259   115665472.782          43.000    22010369.885    90129049.579          44.000  
G31  24441372.086   128440304.159          37.000    24441375.946   100083376.328          31.000  
G32  21707182.099   114072168.064          48.000    21707186.155    88887500.436          44.000  
R 5  22486638.833   120204241.011          45.000                                                  
R 6  19677468.138   105002752.201          40.000                                                  
R 7  21760851.816   116487590.015          50.000                                                  
R 9  19704138.316   105219188.377          51.000    19704139.513    81837006.8101         25.000  
R10  22932868.971   122245159.668          39.000                                                  
R16  19964585.812   106647503.177          52.000                                                  
C 1  37080955.095   193090281.786          45.000    37080956.203   156901704.681          38.000  
C 2  37748461.436   196566101.203          41.000    37748461.543   159726161.566          36.000  
C 3  36793021.396   191590916.592          46.000    36793021.271   155683341.667          39.000  
C 4  38425059.911   200089346.687          42.000    38425059.589   162589092.850          34.000  
C 5  40179355.583   209224469.593          37.000    40179357.423   170012080.298          32.000  
C 6  36436446.723   189734260.016          46.000    36436443.881   154174660.364          41.000  
C 8  36249167.854   188758996.361          46.000    36249164.352   153382107.630          41.000  
C 9  37575116.385   195663589.268          44.000    37575114.670   158992706.271          40.000  
C13  35957609.174   187240786.631          48.000    35957611.890   152148446.419          42.000  
C14  25763334.896   134156569.453          37.000    25763333.699   109013255.893          35.000  
C16  36889851.184   192095405.535          48.000    36889852.041   156093319.459          40.000  
C23  22400407.003   116644879.819          50.000    22400401.571    94783529.369          45.000  
C24  25870942.581   134717003.657          39.000    25870945.940   109470653.040          35.000  
C25  21970780.422   114407854.111          50.000    21970781.172    92967457.080          45.000  
C32  24294703.039   126508954.956          46.000    24294707.327   102798930.030          41.000  
C33  24005179.461   125001538.619          48.000    24005194.096   101576122.771          41.000  
> 2024  6 26 12 50 12.0000000  0 30                     
G10  20309517.424   106727307.587          50.000    20309519.800    83164185.794          46.000  
G12  21715486.727   114115898.253          45.000    21715487.942    88921604.671          42.000  
G23  20945410.872   110068994.869          45.000    20945413.374    85768114.368          46.000  
G24  24021191.768   126232438.950          36.000    24021199.970    98363071.332          37.000  
G25  20525082.884   107860286.417          46.000    20525088.423    84047122.134          44.000  
G28  22010023.530   115663667.210          43.000    22010026.550    90127642.633          44.000  
G31  24440795.918   128437275.673          37.000    24440799.885   100081016.446          31.000  
G32  21706885.276   114070608.454          48.000    21706889.476    88886285.167          44.000  
R 5  22487124.031   120206835.700          45.000                                                  
R 6  19677324.936   105001987.956          40.000                                                  
R 7  21760271.431   116484484.530          50.000                                                  
R 9  19703750.719   105217118.995          51.000    19703752.613    81835397.323          26.000  
R10  22932090.060   122241008.338          39.000                                                  
R16  19964999.587   106649713.656          52.000                                                  
C 1  37080965.280   193090336.807          45.000    37080966.888   156901749.383          38.000  
C 2  37748468.208   196566136.483          41.000    37748468.351   159726190.222          36.000  
C 3  36793032.314   191590971.523          46.000    36793031.850   155683386.286          40.000  
C 4  38425069.739   200089398.061          41.000    38425069.453   162589134.540          35.000  
C 5  40179357.263   209224478.872          37.000    40179359.157   170012087.831          31.000  
C 6  36436471.525   189734387.998          46.000    36436468.416   154174764.365          41.000  
C 8  36249358.928   188759992.267          45.000    36249355.515   153382916.880          41.000  
C 9  37575132.378   195663670.740          44.000    37575130.448   158992772.472          39.000  
C13  35957746.354   187241500.649          48.000    35957749.249   152149026.612          42.000  
C14  25763859.227   134159298.457          36.000    25763857.904   109015473.433          35.000  
C16  36889891.335   192095614.606          48.000    36889892.139   156093489.332          39.000  
C23  22400104.820   116643306.189          50.000    22400099.280    94782250.665          45.000  
C24  25871531.258   134720070.739          38.000    25871534.975   109473145.307          34.000  
C25  21971051.406   114409263.854          50.000    21971051.924    92968602.619          45.000  
C32  24294203.099   126506350.976          46.000    24294206.995   102796814.081          41.000  
C33  24005593.898   125003695.418          47.000    24005608.389   101577875.351          41.000  
> 2024  6 26 12 50 13.0000000  0 30                     
G10  20309468.999   106727052.839          50.000    20309472.626    83163987.301          46.000  
G12  21715616.492   114116579.576          45.000    21715618.493    88922135.572          42.000  
G23  20945862.476   110071367.655          45.000    20945865.156    85769963.292          46.000  
G24  24021802.406   126235646.208          37.000    24021809.018    98365570.443          38.000  
G25  20524848.907   107859057.690          46.000    20524854.428    84046164.696          44.000  
G28  22009680.034   115661862.122          43.000    22009684.019    90126236.082          44.000  
G31  24440219.785   128434247.513          37.000    24440224.663   100078656.832          31.000  
G32  21706588.651   114069049.112          48.000    21706593.154    88885070.077          44.000  
R 5  22487609.389   120209430.950          45.000                                                  
R 6  19677181.519   105001224.329          40.000                                                  
R 7  21759691.616   116481379.272          51.000                                                  
R 9  19703363.408   105215050.489          52.000    19703366.553    81833788.569          25.000  
R10  22931311.686   122236857.419          39.000                                                  
R16  19965413.559   106651924.980          52.000                                                  
C 1  37080975.752   193090392.005          45.000    37080977.181   156901794.234          38.000  
C 2  37748474.963   196566171.920          41.000    37748475.302   159726219.018          36.000  
C 3  36793042.964   191591026.625          46.000    36793042.392   155683431.061          40.000  
C 4  38425079.710   200089449.581          42.000    38425079.317   162589176.486          35.000  
C 5  40179359.049   209224488.279          37.000    40179360.890   170012095.595          31.000  
C 6  36436496.095   189734516.150          46.000    36436493.075   154174868.513          41.000  
C 8  36249550.519   188760988.554          46.000    36249546.999   153383726.443          41.000  
C 9  37575147.977   195663752.420          45.000    37575145.994   158992838.843          39.000  
C13  35957883.428   187242215.031          48.000    35957886.448   152149607.096          42.000  
C14  25764383.414   134162027.794          36.000    25764382.056   109017691.242          35.000  
C16  36889931.612   192095823.847          48.000    36889932.202   156093659.357          40.000  
C23  22399802.708   116641733.154          51.000    22399797.347    94780972.443          45.000  
C24  25872120.453   134723138.063          39.000    25872123.706   109475637.769          36.000  
C25  21971322.086   114410674.155          50.000    21971322.800    92969748.595          45.000  
C32  24293702.874   126503747.236          46.000    24293707.073   102794698.350          41.000  
C33  24006007.977   125005852.687          48.000    24006022.683   101579628.284          41.000  
> 2024  6 26 12 50 14.0000000  0 30                     
G10  20309418.179   106726785.748          50.000    20309421.342    83163779.176          46.000  
G12  21715743.648   114117248.575          45.000    21715745.453    88922656.877          42.000  
G23  20946311.471   110073727.955          45.000    20946315.098    85771802.483          46.000  
G24  24022409.953   126238840.414          37.000    24022417.851    98368059.440          38.000  
G25  20524612.553   107857816.621          46.000    20524618.396    84045197.613          44.000  
G28  22009333.911   115660044.360          43.000    22009337.324    90124819.636          44.000  
G31  24439641.132   128431206.556          37.000    24439645.671   100076287.259          31.000  
G32  21706289.595   114067476.870          48.000    21706293.937    88883844.955          44.000  
R 5  22488092.461   120212013.317          45.000                                                  
R 6  19677036.047   105000448.010          40.000                                                  
R 7  21759109.051   116478260.796          51.000                                                  
R 9  19702973.631   105212969.516          51.000    19702976.258    81832169.992          26.000  
R10  22930530.220   122232693.614          39.000                                                  
R16  19965825.118   106654123.733          52.000                                                  
C 1  37080983.775   193090434.319          45.000    37080985.562   156901828.608          38.000  
C 2  37748479.770   196566194.473          41.000    37748479.287   159726237.306          36.000  
C 3  36793051.130   191591068.834          46.000    36793050.594   155683465.374          39.000  
C 4  38425087.197   200089488.234          42.000    38425086.643   162589207.869          34.000  
C 5  40179358.621   209224484.795          37.000    40179360.265   170012092.644          29.000  
C 6  36436518.324   189734631.420          46.000    36436515.125   154174962.174          41.000  
C 8  36249739.431   188761972.145          45.000    36249735.768   153384525.698          41.000  
C 9  37575161.004   195663821.226          44.000    37575159.342   158992894.754          39.000  
C13  35958018.303   187242916.699          48.000    35958020.966   152150177.278          42.000  
C14  25764904.672   134164744.420          37.000    25764903.885   109019898.742          35.000  
C16  36889969.226   192096020.194          48.000    36889969.995   156093818.932          40.000  
C23  22399498.202   116640147.648          50.000    22399492.859    94779684.092          45.000  
C24  25872707.147   134726192.518          39.000    25872710.310   109478119.765          35.000  
C25  21971590.585   114412071.950          50.000    21971591.104    92970884.420          45.000  
C32  24293200.575   126501130.704          46.000    24293204.685   102792572.191          41.000  
C33  24006419.983   125007997.370          48.000    24006434.689   101581371.023          41.000  
> 2024  6 26 12 50 15.0000000  0 30                     
G10  20309369.790   106726531.719          50.000    20309372.845    83163581.229          46.000  
G12  21715873.431   114117930.667          45.000    21715876.290    88923188.361          42.000  
G23  20946763.128   110076101.182          45.000    20946765.362    85773651.752          46.000  
G24  24023020.394   126242047.012          37.000    24023028.775    98370558.099          38.000  
G25  20524378.934   107856588.604          46.000    20524385.027    84044240.729          44.000  
G28  22008990.236   115658239.331          43.000    22008993.774    90123413.133          44.000  
G31  24439064.999   128428178.243          37.000    24439068.626   100073927.554          31.000  
G32  21705992.665   114065917.143          48.000    21705997.079    88882629.593          44.000  
R 5  22488578.033   120214608.666          45.000                                                  
R 6  19676893.345   104999684.749          40.000                                                  
R 7  21758528.718   116475154.988          50.000                                                  
R 9  19702586.391   105210901.884          51.000    19702588.178    81830559.605          25.000  
R10  22929751.345   122228542.635          39.000                                                  
R16  19966239.215   106656335.758          52.000                                                  
C 1  37080994.317   193090488.927          45.000    37080996.122   156901873.003          38.000  
C 2  37748486.345   196566229.337          41.000    37748486.506   159726265.690          36.000  
C 3  36793061.727   191591123.346          46.000    36793060.976   155683509.676          39.000  
C 4  38425096.614   200089539.178          42.000    38425096.435   162589249.263          33.000  
C 5  40179359.782   209224493.600          37.000    40179361.819   170012099.869          31.000  
C 6  36436542.697   189734759.024          45.000    36436539.749   154175065.859          41.000  
C 8  36249930.754   188762968.220          45.000    36249926.984   153385335.086          41.000  
C 9  37575176.478   195663902.376          44.000    37575174.817   158992960.697          39.000  
C13  35958155.484   187243630.865          48.000    35958158.075   152150757.570          42.000  
C14  25765429.181   134167473.529          36.000    25765428.002   109022116.336          35.000  
C16  36890009.378   192096228.867          48.000    36890009.914   156093988.486          40.000  
C23  22399196.341   116638574.858          50.000    22399190.766    94778406.076          45.000  
C24  25873296.235   134729259.312          39.000    25873299.666   109480611.787          35.000  
C25  21971861.444   114413482.434          50.000    21971861.944    92972030.556          44.000  
C32  24292700.511   126498526.564          45.000    24292704.531   102790456.112          41.000  
C33  24006834.258   125010154.660          47.000    24006848.821   101583123.986          41.000  
> 2024  6 26 12 50 16.0000000  0 30                     
G10  20309321.633   106726278.793          50.000    20309324.099    83163384.143          46.000  
G12  21716003.392   114118613.883          45.000    21716005.483    88923720.764          42.000  
G23  20947215.089   110078475.385          45.000    20947218.181    85775501.797          46.000  
G24  24023630.907   126245254.056          36.000    24023638.841    98373057.090          38.000  
G25  20524145.636   107855361.726          46.000    20524151.407    84043284.736          44.000  
G28  22008647.008   115656435.100          43.000    22008651.011    90122007.255          44.000  
G31  24438488.437   128425150.585          37.000    24438492.851   100071568.319          31.000  
G32  21705695.968   114064357.974          48.000    21705699.542    88881414.654          44.000  
R 5  22489063.749   120217204.862          45.000                                                  
R 6  19676750.393   104998922.447          40.000                                                  
R 7  21757948.886   116472049.686          51.000                                                  
R 9  19702199.527   105208835.409          51.000    19702202.100    81828952.099          25.000  
R10  22928973.488   122224392.398          39.000                                                  
R16  19966653.616   106658548.907          52.000                                                  
C 1  37081005.021   193090543.974          45.000    37081006.790   156901917.726          38.000  
C 2  37748493.511   196566264.629          41.000    37748493.332   159726294.382          35.000  
C 3  36793072.126   191591178.297          46.000    36793071.644   155683554.331          40.000  
C 4  38425106.996   200089590.556          42.000    38425106.228   162589291.037          34.000  
C 5  40179360.818   209224502.852          37.000    40179363.803   170012107.452          32.000  
C 6  36436567.231   189734887.088          46.000    36436564.336   154175169.933          41.000  
C 8  36250121.953   188763964.949          46.000    36250118.522   153386145.015          41.000  
C 9  37575192.364   195663984.021          45.000    37575190.738   158993027.042          40.000  
C13  35958292.503   187244345.662          48.000    35958295.344   152151338.402          42.000  
C14  25765953.119   134170203.223          37.000    25765952.350   109024334.517          35.000  
C16  36890049.565   192096437.980          48.000    36890050.066   156094158.410          40.000  
C23  22398894.390   116637002.951          51.000    22398888.940    94777128.768          45.000  
C24  25873885.395   134732326.584          39.000    25873888.629   109483104.182          35.000  
C25  21972132.374   114414893.759          50.000    21972133.268    92973177.385          45.000  
C32  24292200.339   126495922.960          46.000    24292204.538   102788340.478          41.000  
C33  24007248.641   125012312.689          48.000    24007263.222   101584877.569          41.000  
> 2024  6 26 12 50 17.0000000  0 30                     
G10  20309271.046   106726013.396          50.000    20309274.959    83163177.349          46.000  
G12  21716131.120   114119284.650          45.000    21716133.961    88924243.427          42.000  
G23  20947664.370   110080836.982          45.000    20947667.319    85777341.987          46.000  
G24  24024238.311   126248447.909          36.000    24024247.603    98375545.782          37.000  
G25  20523909.800   107854122.356          46.000    20523915.090    84042318.979          44.000  
G28  22008301.367   115654618.054          43.000    22008304.816    90120591.355          44.000  
G31  24437909.856   128422109.948          37.000    24437914.913   100069199.014          31.000  
G32  21705396.733   114062785.772          48.000    21705400.164    88880189.573          44.000  
R 5  22489547.017   120219788.047          45.000                                                  
R 6  19676605.118   104998147.231          40.000                                                  
R 7  21757366.213   116468931.027          51.000                                                  
R 9  19701810.090   105206756.318          51.000    19701812.377    81827335.0001         25.000  
R10  22928192.005   122220229.057          39.000                                                  
R16  19967065.514   106660749.367          52.000                                                  
C 1  37081013.134   193090585.989          45.000    37081014.885   156901951.882          37.000  
C 2  37748497.442   196566286.946          41.000    37748497.621   159726312.474          35.000  
C 3  36793079.971   191591220.233          46.000    36793079.899   155683588.407          39.000  
C 4  38425114.161   200089628.921          42.000    38425113.590   162589322.191          34.000  
C 5  40179360.729   209224499.142          37.000    40179362.945   170012104.321          31.000  
C 6  36436589.157   189735002.178          46.000    36436586.476   154175263.422          41.000  
C 8  36250310.775   188764948.849          46.000    36250307.469   153386944.511          41.000  
C 9  37575205.676   195664052.667          44.000    37575203.836   158993082.838          39.000  
C13  35958427.486   187245047.648          48.000    35958430.095   152151908.841          42.000  
C14  25766474.805   134172920.103          37.000    25766474.126   109026542.128          34.000  
C16  36890087.198   192096634.089          48.000    36890087.841   156094317.759          40.000  
C23  22398590.116   116635418.437          51.000    22398584.648    94775841.218          45.000  
C24  25874471.713   134735380.881          39.000    25874475.180   109485586.061          35.000  
C25  21972401.017   114416292.447          50.000    21972401.768    92974313.921          45.000  
C32  24291697.826   126493306.422          46.000    24291702.186   102786214.336          41.000  
C33  24007660.647   125014458.008          48.000    24007675.282   101586620.814          41.000  
> 2024  6 26 12 50 18.0000000  0 30                     
G10  20309223.085   106725761.186          50.000    20309226.855    83162980.808          46.000  
G12  21716261.224   114119968.626          45.000    21716262.904    88924776.407          42.000  
G23  20948116.206   110083211.617          45.000    20948119.190    85779192.356          46.000  
G24  24024848.985   126251654.284          36.000    24024855.364    98378044.269          37.000  
G25  20523676.449   107852896.179          46.000    20523681.613    84041363.496          44.000  
G28  22007958.014   115652813.867          43.000    22007962.303    90119185.481          44.000  
G31  24437333.634   128419082.099          37.000    24437338.994   100066839.628          31.000  
G32  21705099.982   114061226.204          48.000    21705104.682    88878974.344          44.000  
R 5  22490032.751   120222384.368          45.000                                                  
R 6  19676462.398   104997385.251          40.000                                                  
R 7  21756785.792   116465825.214          50.000                                                  
R 9  19701423.207   105204690.668          51.000    19701425.655    81825728.337          28.000  
R10  22927413.290   122216078.692          39.000                                                  
R16  19967479.897   106662963.249          52.000                                                  
C 1  37081023.730   193090640.437          44.000    37081025.517   156901996.135          37.000  
C 2  37748504.125   196566321.627          41.000    37748504.179   159726340.700          34.000  
C 3  36793090.263   191591274.579          45.000    36793090.263   155683632.575          39.000  
C 4  38425123.829   200089679.691          42.000    38425123.257   162589363.448          35.000  
C 5  40179362.480   209224507.825          37.000    40179364.517   170012111.409          29.000  
C 6  36436613.744   189735129.663          46.000    36436610.921   154175367.005          41.000  
C 8  36250502.384   188765945.383          45.000    36250498.793   153387754.275          41.000  
C 9  37575221.187   195664133.759          44.000    37575219.453   158993148.710          39.000  
C13  35958564.720   187245762.256          48.000    35958567.400   152152489.505          41.000  
C14  25766998.993   134175649.546          37.000    25766998.260   109028760.081          34.000  
C16  36890127.260   192096842.611          48.000    36890127.939   156094487.203          40.000  
C23  22398288.434   116633846.777          50.000    22398282.823    94774564.125          45.000  
C24  25875060.551   134738447.655          39.000    25875064.071   109488078.047          35.000  
C25  21972672.162   114417703.940          49.000    21972672.716    92975460.876          45.000  
C32  24291197.923   126490702.399          46.000    24291201.836   102784098.340          41.000  
C33  24008074.976   125016616.043          47.000    24008089.700   101588374.396          41.000  
> 2024  6 26 12 50 19.0000000  0 30                     
G10  20309175.393   106725510.235          50.000    20309179.038    83162785.267          46.000  
G12  21716391.632   114120653.858          45.000    21716394.205    88925310.333          42.000  
G23  20948568.310   110085587.370          45.000    20948571.080    85781043.592          46.000  
G24  24025459.319   126254861.223          36.000    24025464.448    98380543.187          37.000  
G25  20523443.472   107851671.246          46.000    20523449.137    84040409.037          44.000  
G28  22007614.929   115651010.584          43.000    22007618.556    90117780.341          44.000  
G31  24436758.090   128416055.004          37.000    24436762.468   100064480.899          31.000  
G32  21704803.499   114059667.334          48.000    21704807.895    88877759.635          44.000  
R 5  22490518.770   120224981.699          45.000                                                  
R 6  19676319.678   104996624.356          40.000                                                  
R 7  21756205.978   116462720.060          51.000                                                  
R 9  19701036.611   105202626.352          51.000    19701039.970    81824123.3471         25.000  
R10  22926634.987   122211929.192          39.000                                                  
R16  19967894.619   106665178.436          52.000                                                  
C 1  37081034.308   193090695.478          44.000    37081036.167   156902040.842          37.000  
C 2  37748510.719   196566356.922          41.000    37748511.005   159726369.354          36.000  
C 3  36793100.967   191591329.522          46.000    36793100.735   155683677.209          39.000  
C 4  38425133.549   200089731.036          41.000    38425133.067   162589405.215          33.000  
C 5  40179364.535   209224517.045          37.000    40179366.411   170012118.958          32.000  
C 6  36436638.439   189735257.748          46.000    36436635.687   154175471.098          41.000  
C 8  36250693.869   188766942.678          46.000    36250690.384   153388564.657          41.000  
C 9  37575236.786   195664215.474          44.000    37575235.071   158993215.122          39.000  
C13  35958702.079   187246477.626          48.000    35958704.992   152153070.794          42.000  
C14  25767522.912   134178379.796          36.000    25767522.609   109030978.590          35.000  
C16  36890167.304   192097051.738          48.000    36890168.162   156094657.136          40.000  
C23  22397986.626   116632276.121          50.000    22397981.194    94773287.841          45.000  
C24  25875649.210   134741515.026          38.000    25875653.141   109490570.532          35.000  
C25  21972943.199   114419116.405          50.000    21972943.950    92976608.612          45.000  
C32  24290697.876   126488099.048          46.000    24290701.968   102781982.916          42.000  
C33  24008489.555   125018774.964          47.000    24008504.190   101590128.701          41.000  
> 2024  6 26 12 50 20.0000000  0 30                     
G10  20309125.324   106725247.064          50.000    20309128.862    83162580.215          46.000  
G12  21716519.771   114121326.915          45.000    21716521.415    88925834.795          42.000  
G23  20949017.913   110087950.766          45.000    20949021.147    85782885.190          46.000  
G24  24026066.473   126258055.291          36.000    24026073.710    98383032.071          37.000  
G25  20523208.012   107850434.127          46.000    20523213.784    84039445.032          44.000  
G28  22007269.413   115649194.786          43.000    22007273.952    90116365.431          44.000  
G31  24436179.795   128413015.285          37.000    24436184.352   100062112.271          31.000  
G32  21704504.247   114058095.717          48.000    21704508.625    88876534.991          44.000  
R 5  22491002.181   120227566.320          45.000                                                  
R 6  19676174.617   104995850.856          40.000                                                  
R 7  21755623.376   116459601.848          51.000                                                  
R 9  19700647.692   105200549.694          51.000    19700650.158    81822508.064          26.000  
R10  22925854.200   122207766.891          39.000                                                  
R16  19968307.036   106667381.216          52.000                                                  
C 1  37081042.457   193090737.737          44.000    37081044.369   156902075.211          37.000  
C 2  37748515.472   196566379.477          41.000    37748515.257   159726387.649          36.000  
C 3  36793108.847   191591371.693          45.000    36793108.919   155683711.472          39.000  
C 4  38425140.733   200089769.648          41.000    38425140.375   162589436.567          34.000  
C 5  40179364.160   209224513.573          36.000    40179365.840   170012116.104          30.000  
C 6  36436660.686   189735373.116          46.000    36436657.648   154175564.843          41.000  
C 8  36250883.155   188767927.448          45.000    36250879.367   153389364.862          41.000  
C 9  37575249.884   195664284.452          44.000    37575248.258   158993271.193          39.000  
C13  35958837.080   187247180.446          48.000    35958839.831   152153641.900          42.000  
C14  25768044.813   134181097.443          37.000    25768044.867   109033186.891          34.000  
C16  36890205.133   192097248.111          48.000    36890205.741   156094816.691          40.000  
C23  22397682.620   116630693.148          50.000    22397677.188    94772001.543          45.000  
C24  25876235.850   134744569.686          38.000    25876239.799   109493052.720          34.000  
C25  21973212.199   114420516.520          50.000    21973212.860    92977746.325          45.000  
C32  24290195.435   126485483.042          45.000    24290199.670   102779857.187          41.000  
C33  24008901.740   125020921.435          47.000    24008916.446   101591872.887          41.000  
> 2024  6 26 12 50 21.0000000  0 30                     
G10  20309077.721   106724997.325          50.000    20309081.151    83162385.606          46.000  
G12  21716650.429   114122013.388          45.000    21716652.431    88926369.723          42.000  
G23  20949470.142   110090327.455          45.000    20949473.305    85784737.172          46.000  
G24  24026676.647   126261262.015          36.000    24026684.563    98385530.842          37.000  
G25  20522975.179   107849210.418          46.000    20522980.468    84038491.504          44.000  
G28  22006926.203   115647392.072          43.000    22006930.152    90114960.728          44.000  
G31  24435603.358   128409988.510          37.000    24435608.076   100059753.740          31.000  
G32  21704207.693   114056536.944          48.000    21704212.249    88875320.365          44.000  
R 5  22491488.218   120230164.298          45.000                                                  
R 6  19676032.380   104995090.810          40.000                                                  
R 7  21755043.079   116456496.679          51.000                                                  
R 9  19700261.364   105198486.699          51.000    19700262.507    81820903.631          27.000  
R10  22925075.575   122203617.817          39.000                                                  
R16  19968721.884   106669597.620          52.000                                                  
C 1  37081052.946   193090792.662          44.000    37081054.625   156902119.823          38.000  
C 2  37748522.030   196566414.658          40.000    37748521.762   159726416.272          36.000  
C 3  36793119.604   191591426.516          46.000    36793119.372   155683756.046          39.000  
C 4  38425150.489   200089820.863          41.000    38425150.293   162589478.195          35.000  
C 5  40179365.840   209224522.733          36.000    40179367.341   170012123.540          30.000  
C 6  36436685.399   189735501.137          46.000    36436682.201   154175668.867          41.000  
C 8  36251074.604   188768925.066          45.000    36251070.923   153390175.516          41.000  
C 9  37575265.734   195664366.117          44.000    37575263.840   158993337.536          39.000  
C13  35958974.564   187247896.116          48.000    35958977.226   152154223.436          41.000  
C14  25768569.698   134183827.930          37.000    25768569.090   109035405.662          35.000  
C16  36890245.374   192097457.136          48.000    36890245.875   156094986.555          39.000  
C23  22397381.259   116629123.239          50.000    22397375.684    94770725.871          45.000  
C24  25876824.938   134747637.060          38.000    25876828.691   109495545.179          35.000  
C25  21973483.594   114421929.650          49.000    21973484.255    92978894.616          44.000  
C32  24289695.424   126482879.770          46.000    24289699.605   102777741.817          41.000  
C33  24009316.444   125023080.865          47.000    24009331.204   101593627.589          41.000  
> 2024  6 26 12 50 22.0000000  0 30                     
G10  20309030.546   106724749.100          50.000    20309033.459    83162192.180          46.000  
G12  21716781.481   114122701.411          45.000    21716783.446    88926905.847          42.000  
G23  20949922.854   110092705.532          45.000    20949925.767    85786590.203          46.000  
G24  24027287.499   126264469.693          36.000    24027293.610    98388030.299          37.000  
G25  20522742.596   107847988.226          46.000    20522747.474    84037539.133          44.000  
G28  22006583.565   115645590.538          43.000    22006586.656    90113556.933          44.000  
G31  24435028.262   128406962.791          37.000    24435032.336   100057396.044          31.000  
G32  21703911.246   114054979.157          48.000    21703915.302    88874106.505          44.000  
R 5  22491974.434   120232763.545          45.000                                                  
R 6  19675890.178   104994332.099          40.000                                                  
R 7  21754463.408   116453392.435          51.000                                                  
R 9  19699875.375   105196425.308          51.000    19699877.966    81819302.936          25.000  
R10  22924297.701   122199469.833          39.000                                                  
R16  19969137.124   106671815.556          52.000                                                  
C 1  37081063.721   193090848.447          45.000    37081065.257   156902165.132          38.000  
C 2  37748528.588   196566450.715          41.000    37748528.695   159726445.554          35.000  
C 3  36793130.290   191591482.209          46.000    36793130.129   155683801.286          39.000  
C 4  38425160.585   200089872.967          41.000    38425160.210   162589520.510          34.000  
C 5  40179367.627   209224532.741          37.000    40179369.306   170012131.658          33.000  
C 6  36436709.915   189735630.015          46.000    36436706.878   154175773.603          41.000  
C 8  36251266.410   188769923.735          46.000    36251262.890   153390987.016          41.000  
C 9  37575281.566   195664448.706          44.000    37575279.833   158993404.633          39.000  
C13  35959112.227   187248612.841          48.000    35959114.925   152154805.840          42.000  
C14  25769094.421   134186559.418          37.000    25769093.617   109037625.225          34.000  
C16  36890285.544   192097667.025          48.000    36890286.187   156095157.107          39.000  
C23  22397079.952   116627554.612          50.000    22397074.448    94769451.226          45.000  
C24  25877414.062   134750705.297          39.000    25877417.743   109498038.387          34.000  
C25  21973755.078   114423344.037          50.000    21973755.864    92980043.909          45.000  
C32  24289195.681   126480277.445          46.000    24289200.023   102775627.232          41.000  
C33  24009731.309   125025241.435          47.000    24009746.051   101595383.241          40.000  
> 2024  6 26 12 50 23.0000000  0 30                     
G10  20308980.996   106724488.838          50.000    20308983.676    83161989.376          46.000  
G12  21716910.048   114123377.437          45.000    21716912.461    88927432.618          42.000  
G23  20950372.814   110095071.428          45.000    20950375.709    85788433.767          46.000  
G24  24027895.350   126267664.568          36.000    24027902.515    98390519.826          37.000  
G25  20522507.493   107846754.032          46.000    20522512.961    84036577.414          44.000  
G28  22006238.281   115643776.644          43.000    22006241.623    90112143.525          44.000  
G31  24434449.430   128403924.587          37.000    24434454.469   100055028.653          31.000  
G32  21703612.547   114053408.772          48.000    21703616.800    88872882.797          44.000  
R 5  22492458.185   120235350.231          45.000                                                  
R 6  19675745.511   104993560.980          40.000                                                  
R 7  21753881.075   116450275.286          51.000                                                  
R 9  19699487.063   105194351.733          51.000    19699492.138    81817698.525          26.000  
R10  22923517.004   122195309.252          39.000                                                  
R16  19969549.970   106674021.245          52.000                                                  
C 1  37081071.887   193090891.648          45.000    37081073.656   156902200.246          38.000  
C 2  37748533.162   196566474.166          41.000    37748533.323   159726464.641          36.000  
C 3  36793138.581   191591525.308          46.000    36793138.420   155683836.310          40.000  
C 4  38425168.519   200089912.481          41.000    38425167.804   162589552.609          34.000  
C 5  40179366.108   209224530.165          37.000    40179368.788   170012129.541          29.000  
C 6  36436732.377   189735746.341          46.000    36436729.268   154175868.130          41.000  
C 8  36251455.715   188770909.995          45.000    36251452.230   153391788.441          41.000  
C 9  37575295.057   195664518.716          44.000    37575293.092   158993461.531          39.000  
C13  35959247.299   187249317.164          48.000    35959250.211   152155378.173          42.000  
C14  25769616.679   134189278.525          37.000    25769615.732   109039834.688          35.000  
C16  36890323.355   192097864.346          48.000    36890324.248   156095317.442          39.000  
C23  22396776.446   116625973.829          50.000    22396770.871    94768166.719          45.000  
C24  25878001.417   134753761.022          39.000    25878004.580   109500521.424          35.000  
C25  21974024.454   114424746.220          50.000    21974025.204    92981183.307          44.000  
C32  24288693.561   126477662.637          46.000    24288697.796   102773502.467          41.000  
C33  24010143.994   125027389.749          47.000    24010158.611   101597128.922          41.000  
> 2024  6 26 12 50 24.0000000  0 30                     
G10  20308933.875   106724241.567          50.000    20308937.484    83161796.697          46.000  
G12  21717041.028   114124066.446          45.000    21717042.243    88927969.483          42.000  
G23  20950825.579   110097450.174          45.000    20950828.635    85790287.342          46.000  
G24  24028505.809   126270871.793          36.000    24028515.387    98393018.926          37.000  
G25  20522275.124   107845532.782          46.000    20522280.485    84035625.821          44.000  
G28  22005895.536   115641975.409          43.000    22005899.413    90110739.961          44.000  
G31  24433873.869   128400898.939          37.000    24433879.087   100052670.980          31.000  
G32  21703315.921   114051850.826          48.000    21703320.281    88871668.847          44.000  
R 5  22492944.579   120237949.813          45.000                                                  
R 6  19675603.649   104992802.880          40.000                                                  
R 7  21753300.921   116447170.740          50.000                                                  
R 9  19699101.128   105192291.412          51.000    19699103.254    81816089.291          25.000  
R10  22922738.861   122191161.413          39.000                                                  
R16  19969965.335   106676240.130          52.000                                                  
C 1  37081082.358   193090947.047          45.000    37081084.127   156902245.260          38.000  
C 2  37748539.952   196566509.870          41.000    37748540.471   159726493.613          35.000  
C 3  36793149.267   191591580.611          46.000    36793149.106   155683881.246          39.000  
C 4  38425178.454   200089964.199          42.000    38425177.793   162589594.655          34.000  
C 5  40179368.431   209224539.807          36.000    40179370.772   170012137.402          30.000  
C 6  36436756.947   189735874.890          46.000    36436753.712   154175972.580          41.000  
C 8  36251647.413   188771908.670          45.000    36251643.983   153392599.934          41.000  
C 9  37575310.871   195664600.980          44.000    37575308.977   158993528.406          39.000  
C13  35959385.051   187250033.927          48.000    35959387.749   152155960.577          41.000  
C14  25770141.082   134192009.981          37.000    25770140.403   109042054.258          34.000  
C16  36890363.631   192098073.886          48.000    36890364.435   156095487.708          40.000  
C23  22396475.389   116624405.682          50.000    22396469.778    94766892.467          45.000  
C24  25878590.970   134756828.977          38.000    25878593.793   109503014.358          35.000  
C25  21974296.295   114426161.013          49.000    21974296.974    92982332.924          44.000  
C32  24288193.890   126475060.132          46.000    24288198.071   102771387.719          41.000  
C33  24010558.859   125029550.555          47.000    24010573.601   101598884.749          41.000  
> 2024  6 26 12 50 25.0000000  0 30                     
G10  20308886.915   106723994.844          50.000    20308889.971    83161604.443          46.000  
G12  21717172.276   114124756.044          45.000    21717173.885    88928506.846          42.000  
G23  20951278.559   110099829.343          45.000    20951281.632    85792141.231          46.000  
G24  24029116.197   126274078.837          36.000    24029123.702    98395517.945          37.000  
G25  20522042.898   107844312.110          46.000    20522048.795    84034674.639          44.000  
G28  22005552.665   115640174.397          43.000    22005556.400    90109336.579          44.000  
G31  24433298.344   128397873.376          37.000    24433303.490   100050313.401          31.000  
G32  21703019.688   114050292.872          48.000    21703023.423    88870454.855          44.000  
R 5  22493430.867   120240549.651          45.000                                                  
R 6  19675461.375   104992045.164          40.000                                                  
R 7  21752721.214   116444066.110          51.000                                                  
R 9  19698715.407   105190231.709          51.000    19698715.907    81814485.460          26.000  
R10  22921960.647   122187013.765          39.000                                                  
R16  19970380.879   106678459.591          52.000                                                  
C 1  37081092.990   193091002.344          45.000    37081094.616   156902290.198          38.000  
C 2  37748546.689   196566545.453          41.000    37748547.332   159726522.536          35.000  
C 3  36793159.774   191591635.829          46.000    36793159.810   155683926.123          39.000  
C 4  38425188.193   200090015.814          42.000    38425187.567   162589636.626          35.000  
C 5  40179370.486   209224549.339          37.000    40179372.594   170012145.195          31.000  
C 6  36436781.642   189736003.370          46.000    36436778.693   154176076.978          41.000  
C 8  36251839.273   188772907.443          46.000    36251835.699   153393411.523          41.000  
C 9  37575326.596   195664683.171          45.000    37575324.559   158993595.155          40.000  
C13  35959522.535   187250750.768          48.000    35959525.645   152156543.082          42.000  
C14  25770665.341   134194741.536          37.000    25770665.019   109044273.875          35.000  
C16  36890403.837   192098283.316          48.000    36890404.605   156095657.891          40.000  
C23  22396174.224   116622837.867          51.000    22396168.739    94765618.481          45.000  
C24  25879179.486   134759896.865          39.000    25879182.988   109505507.327          34.000  
C25  21974567.922   114427576.086          50.000    21974568.637    92983482.794          45.000  
C32  24287693.843   126472457.612          46.000    24287698.435   102769272.977          41.000  
C33  24010973.814   125031711.585          47.000    24010988.556   101600640.756          41.000  
> 2024  6 26 12 50 26.0000000  0 30                     
G10  20308837.597   106723735.715          50.000    20308841.028    83161402.526          46.000  
G12  21717301.112   114125433.238          45.000    21717303.274    88929034.539          42.000  
G23  20951728.965   110102195.952          45.000    20951731.074    85793985.340          46.000  
G24  24029724.226   126277272.855          36.000    24029730.427    98398006.742          37.000  
G25  20521808.368   107843079.020          46.000    20521813.550    84033713.791          44.000  
G28  22005207.811   115638360.644          43.000    22005212.099    90107923.258          44.000  
G31  24432720.334   128394834.924          37.000    24432725.302   100047945.754          31.000  
G32  21702720.668   114048721.953          48.000    21702724.528    88869230.764          44.000  
R 5  22493914.832   120243136.570          45.000                                                  
R 6  19675317.083   104991274.602          40.000                                                  
R 7  21752138.774   116440948.202          50.000                                                  
R 9  19698327.292   105188159.440          51.000    19698329.025    81812881.896          25.000  
R10  22921180.414   122182853.131          39.000                                                  
R16  19970793.922   106680666.428          52.000                                                  
C 1  37081101.174   193091044.681          45.000    37081102.997   156902324.614          38.000  
C 2  37748551.389   196566568.067          41.000    37748551.567   159726540.928          36.000  
C 3  36793167.779   191591678.079          46.000    36793167.815   155683960.445          39.000  
C 4  38425195.555   200090054.482          41.000    38425194.983   162589667.973          35.000  
C 5  40179370.110   209224545.937          36.000    40179371.987   170012142.412          32.000  
C 6  36436803.674   189736118.890          46.000    36436800.940   154176170.842          41.000  
C 8  36252028.595   188773893.474          46.000    36252025.040   153394212.757          41.000  
C 9  37575339.855   195664752.440          44.000    37575338.068   158993651.456          39.000  
C13  35959657.750   187251454.838          48.000    35959660.681   152157115.208          42.000  
C14  25771187.509   134197460.320          37.000    25771187.134   109046483.067          35.000  
C16  36890441.540   192098479.808          48.000    36890442.184   156095817.584          40.000  
C23  22395870.648   116621257.510          50.000    22395865.305    94764334.329          45.000  
C24  25879766.072   134762951.851          38.000    25879769.664   109507989.716          34.000  
C25  21974837.298   114428978.592          50.000    21974837.905    92984622.458          45.000  
C32  24287191.741   126469842.238          46.000    24287196.191   102767147.754          41.000  
C33  24011386.427   125033859.948          47.000    24011401.134   101602386.480          41.000  
> 2024  6 26 12 50 27.0000000  0 30                     
G10  20308790.351   106723486.830          50.000    20308793.532    83161208.597          46.000  
G12  21717432.038   114126120.692          45.000    21717433.307    88929570.214          42.000  
G23  20952181.070   110104572.664          45.000    20952184.054    85795837.330          46.000  
G24  24030333.203   126280476.361          36.000    24030340.207    98400503.050          37.000  
G25  20521575.784   107841856.197          46.000    20521580.734    84032760.931          44.000  
G28  22004864.493   115636556.791          43.000    22004868.353    90106517.673          44.000  
G31  24432144.005   128391806.289          37.000    24432148.776   100045585.773          31.000  
G32  21702423.578   114047160.727          48.000    21702427.741    88868014.236          44.000  
R 5  22494400.726   120245733.632          45.000                                                  
R 6  19675174.792   104990514.267          40.000                                                  
R 7  21751558.120   116437840.143          51.000                                                  
R 9  19697941.160   105186097.628          51.000    19697941.500    81811278.114          25.000  
R10  22920401.343   122178702.462          39.000                                                  
R16  19971209.037   106682883.679          52.000                                                  
C 1  37081111.234   193091096.509          45.000    37081112.986   156902366.750          38.000  
C 2  37748557.536   196566600.186          41.000    37748557.947   159726567.019          36.000  
C 3  36793177.929   191591729.840          46.000    36793177.857   155684002.505          40.000  
C 4  38425204.739   200090102.646          41.000    38425204.275   162589707.148          34.000  
C 5  40179371.844   209224552.043          36.000    40179373.184   170012147.317          33.000  
C 6  36436827.779   189736243.945          46.000    36436824.742   154176272.462          41.000  
C 8  36252219.812   188774889.168          46.000    36252216.274   153395021.835          41.000  
C 9  37575355.008   195664831.258          44.000    37575353.167   158993715.485          39.000  
C13  35959794.984   187252168.603          48.000    35959797.540   152157695.175          42.000  
C14  25771711.501   134200188.752          37.000    25771711.036   109048700.146          35.000  
C16  36890481.281   192098685.812          48.000    36890481.799   156095984.951          40.000  
C23  22395569.179   116619687.087          50.000    22395563.533    94763058.231          45.000  
C24  25880354.642   134766016.357          39.000    25880358.127   109510479.897          35.000  
C25  21975108.496   114430390.989          50.000    21975109.157    92985770.145          45.000  
C32  24286691.516   126467236.447          46.000    24286695.626   102765030.355          41.000  
C33  24011800.899   125036018.128          47.000    24011815.695   101604140.197          41.000  
> 2024  6 26 12 50 28.0000000  0 30                     
G10  20308742.355   106723235.098          50.000    20308745.696    83161012.444          46.000  
G12  21717562.286   114126805.328          45.000    21717564.412    88930103.699          42.000  
G23  20952632.638   110106946.413          45.000    20952635.336    85797686.989          46.000  
G24  24030942.304   126283676.379          36.000    24030948.129    98402996.549          37.000  
G25  20521342.326   107840630.510          46.000    20521347.329    84031805.873          44.000  
G28  22004520.514   115634749.784          43.000    22004523.927    90105109.627          44.000  
G31  24431567.139   128388774.361          37.000    24431573.304   100043223.267          31.000  
G32  21702125.880   114045596.099          48.000    21702130.186    88866795.048          44.000  
R 5  22494886.120   120248327.494          45.000                                                  
R 6  19675031.733   104989750.827          40.000                                                  
R 7  21750976.805   116434728.554          51.000                                                  
R 9  19697554.528   105184032.981          51.000    19697557.977    81809674.212          25.000  
R10  22919622.307   122174548.500          39.000                                                  
R16  19971623.581   106685098.039          52.000                                                  
C 1  37081120.544   193091144.883          45.000    37081122.313   156902406.048          38.000  
C 2  37748562.878   196566628.827          41.000    37748563.182   159726590.276          36.000  
C 3  36793187.221   191591778.104          46.000    36793187.006   155684041.723          39.000  
C 4  38425213.174   200090147.313          42.000    38425212.781   162589743.427          33.000  
C 5  40179371.075   209224554.649          37.000    40179373.899   170012149.479          33.000  
C 6  36436851.241   189736365.530          46.000    36436848.132   154176371.248          41.000  
C 8  36252410.385   188775881.602          45.000    36252406.758   153395828.264          41.000  
C 9  37575369.446   195664906.607          44.000    37575367.784   158993776.729          39.000  
C13  35959931.325   187252879.111          48.000    35959934.077   152158272.540          42.000  
C14  25772234.813   134202913.892          38.000    25772234.384   109050914.562          34.000  
C16  36890519.967   192098888.350          48.000    36890520.772   156096149.513          39.000  
C23  22395267.032   116618113.610          50.000    22395261.510    94761779.648          45.000  
C24  25880942.372   134769077.479          38.000    25880946.321   109512967.269          34.000  
C25  21975379.086   114431800.296          50.000    21975379.908    92986915.317          45.000  
C32  24286190.254   126464627.271          46.000    24286194.525   102762910.193          41.000  
C33  24012214.657   125038173.119          47.000    24012229.524   101605891.293          41.000  
> 2024  6 26 12 50 29.0000000  0 30                     
G10  20308695.163   106722986.336          50.000    20308697.807    83160818.588          46.000  
G12  21717693.230   114127492.960          45.000    21717693.891    88930639.515          42.000  
G23  20953085.028   110109322.988          45.000    20953088.226    85799538.849          46.000  
G24  24031552.174   126286878.699          36.000    24031557.874    98405491.854          38.000  
G25  20521109.653   107839407.802          46.000    20521114.621    84030853.120          44.000  
G28  22004177.072   115632945.407          43.000    22004181.521    90103703.600          44.000  
G31  24430990.416   128385744.933          37.000    24430995.312   100040862.678          31.000  
G32  21701828.504   114044033.908          48.000    21701832.631    88865577.742          45.000  
R 5  22495371.925   120250924.123          45.000                                                  
R 6  19674889.156   104988990.235          40.000                                                  
R 7  21750396.133   116431619.423          51.000                                                  
R 9  19697168.414   105181971.429          51.000    19697169.093    81808070.894          25.000  
R10  22918843.325   122170397.150          39.000                                                  
R16  19972038.696   106687315.427          52.000                                                  
C 1  37081130.158   193091195.551          45.000    37081132.159   156902447.211          38.000  
C 2  37748568.864   196566659.789          41.000    37748569.079   159726615.468          36.000  
C 3  36793196.816   191591828.673          46.000    36793196.405   155684082.821          40.000  
C 4  38425222.287   200090194.267          42.000    38425221.822   162589781.636          34.000  
C 5  40179372.040   209224559.563          36.000    40179374.685   170012153.472          32.000  
C 6  36436874.972   189736489.427          46.000    36436871.916   154176471.937          41.000  
C 8  36252601.298   188776876.557          46.000    36252598.081   153396636.749          42.000  
C 9  37575384.313   195664984.306          44.000    37575382.473   158993839.868          40.000  
C13  35960068.380   187253592.120          48.000    35960070.900   152158851.899          42.000  
C14  25772758.983   134205641.492          37.000    25772758.197   109053130.973          35.000  
C16  36890559.440   192099093.194          48.000    36890560.101   156096315.984          40.000  
C23  22394965.367   116616542.876          51.000    22394959.828    94760503.286          45.000  
C24  25881530.406   134772140.907          38.000    25881534.587   109515456.574          35.000  
C25  21975650.177   114433212.275          50.000    21975651.106    92988062.668          45.000  
C32  24285689.671   126462020.495          46.000    24285693.888   102760791.964          41.000  
C33  24012629.004   125040330.726          48.000    24012643.888   101607644.519          41.000  
> 2024  6 26 12 50 30.0000000  0 30                     
G10  20308646.041   106722729.319          50.000    20308649.400    83160618.315          46.000  
G12  21717822.530   114128172.346          45.000    21717823.870    88931168.877          42.000  
G23  20953535.541   110111691.158          45.000    20953538.365    85801384.192          46.000  
G24  24032159.417   126290072.063          36.000    24032166.904    98407980.189          38.000  
G25  20520875.462   107838176.848          46.000    20520880.340    84029893.921          44.000  
G28  22003831.949   115631132.449          43.000    22003835.720    90102290.917          44.000  
G31  24430412.264   128382706.820          37.000    24430416.964   100038495.287          31.000  
G32  21701529.573   114042462.892          48.000    21701533.397    88864353.581          45.000  
R 5  22495855.890   120253512.009          45.000                                                  
R 6  19674744.703   104988221.074          40.000                                                  
R 7  21749813.353   116428501.237          50.000                                                  
R 9  19696780.835   105179901.537          51.000    19696780.353    81806461.008          25.000  
R10  22918063.110   122166237.039          39.000                                                  
R16  19972452.221   106689524.423          52.000                                                  
C 1  37081138.520   193091237.370          45.000    37081140.039   156902481.188          38.000  
C 2  37748573.278   196566681.880          41.000    37748573.636   159726633.420          36.000  
C 3  36793204.875   191591870.417          46.000    36793204.518   155684116.718          39.000  
C 4  38425229.720   200090232.403          42.000    38425229.184   162589812.586          33.000  
C 5  40179371.611   209224555.652          37.000    40179373.881   170012150.273          33.000  
C 6  36436897.093   189736604.500          46.000    36436894.234   154176565.452          41.000  
C 8  36252790.548   188777862.850          45.000    36252787.475   153397438.188          41.000  
C 9  37575397.500   195665053.208          44.000    37575395.910   158993895.864          39.000  
C13  35960203.667   187254296.464          48.000    35960206.294   152159424.245          42.000  
C14  25773280.723   134208360.427          36.000    25773280.329   109055340.325          35.000  
C16  36890596.947   192099289.195          48.000    36890597.644   156096475.256          40.000  
C23  22394662.166   116614963.708          51.000    22394656.501    94759220.092          45.000  
C24  25882117.171   134775195.538          38.000    25882120.941   109517938.710          35.000  
C25  21975919.821   114434615.813          50.000    21975920.661    92989203.158          45.000  
C32  24285187.427   126459404.975          46.000    24285191.697   102758666.647          41.000  
C33  24013041.760   125042479.784          47.000    24013056.663   101609390.802          41.000  
> 2024  6 26 12 50 31.0000000  0 30                     
G10  20308599.778   106722486.033          50.000    20308603.280    83160428.760          46.000  
G12  21717954.296   114128865.493          45.000    21717956.744    88931709.009          42.000  
G23  20953988.843   110114072.927          45.000    20953991.898    85803240.118          46.000  
G24  24032769.769   126293278.473          36.000    24032776.774    98410478.690          38.000  
G25  20520643.879   107836959.633          46.000    20520649.240    84028945.433          44.000  
G28  22003489.650   115629332.890          43.000    22003493.242    90100888.661          44.000  
G31  24429836.596   128379681.961          37.000    24429841.099   100036138.268          31.000  
G32  21701232.947   114040905.061          48.000    21701237.164    88863139.691          45.000  
R 5  22496342.446   120256113.567          45.000                                                  
R 6  19674603.412   104987465.650          40.000                                                  
R 7  21749233.074   116425396.400          50.000                                                  
R 9  19696395.865   105177845.623          51.000    19696396.097    81804861.3771         25.000  
R10  22917285.039   122162090.430          39.000                                                  
R16  19972868.319   106691747.365          52.000                                                  
C 1  37081149.045   193091292.150          44.000    37081150.671   156902525.687          37.000  
C 2  37748579.925   196566716.965          41.000    37748580.068   159726661.944          36.000  
C 3  36793215.257   191591925.097          46.000    36793215.061   155684161.163          40.000  
C 4  38425239.745   200090283.475          42.000    38425239.012   162589854.112          34.000  
C 5  40179373.416   209224564.669          37.000    40179375.560   170012157.607          32.000  
C 6  36436921.771   189736732.543          46.000    36436918.733   154176669.495          41.000  
C 8  36252982.712   188778862.297          45.000    36252979.335   153398250.323          42.000  
C 9  37575413.511   195665135.083          44.000    37575411.563   158993962.372          39.000  
C13  35960341.383   187255013.957          48.000    35960344.028   152160007.279          42.000  
C14  25773805.160   134211092.494          37.000    25773804.875   109057560.351          35.000  
C16  36890637.188   192099498.162          48.000    36890637.903   156096645.054          40.000  
C23  22394361.483   116613397.929          50.000    22394355.748    94757947.773          45.000  
C24  25882706.491   134778263.153          38.000    25882709.815   109520431.400          35.000  
C25  21976192.020   114436032.692          50.000    21976192.770    92990354.485          45.000  
C32  24284687.576   126456802.490          46.000    24284691.811   102756551.910          41.000  
C33  24013457.018   125044642.111          47.000    24013472.136   101611147.868          41.000  
> 2024  6 26 12 50 32.0000000  0 30                     
G10  20308555.355   106722252.020          50.000    20308557.678    83160246.398          45.000  
G12  21718087.992   114129567.917          45.000    21718090.011    88932256.362          41.000  
G23  20954443.788   110116463.830          45.000    20954446.451    85805103.174          45.000  
G24  24033381.515   126296493.481          36.000    24033389.181    98412983.905          36.000  
G25  20520413.815   107835751.661          46.000    20520419.015    84028004.214          43.000  
G28  22003149.103   115627542.257          43.000    22003152.998    90099493.390          43.000  
G31  24429262.446   128376665.920          37.000    24429266.645   100033788.191          30.000  
G32  21700938.305   114039355.930          48.000    21700941.932    88861932.599          44.000  
R 5  22496831.038   120258724.243          45.000                                                  
R 6  19674463.498   104986719.492          40.000                                                  
R 7  21748655.011   116422300.352          51.000                                                  
R 9  19696012.628   105175799.186          51.000    19696011.913    81803269.175          24.000  
R10  22916509.112   122157952.810          39.000                                                  
R16  19973286.240   106693979.721          52.000                                                  
C 1  37081161.053   193091355.452          45.000    37081162.626   156902577.127          36.000  
C 2  37748587.984   196566760.578          41.000    37748588.806   159726697.363          34.000  
C 3  36793227.372   191591988.301          46.000    36793226.944   155684212.516          38.000  
C 4  38425251.038   200090343.110          41.000    38425250.431   162589902.566          30.000  
C 5  40179376.686   209224582.217          36.000    40179378.991   170012171.880          30.000  
C 6  36436948.074   189736869.133          46.000    36436944.893   154176780.483          40.000  
C 8  36253176.305   188779870.483          46.000    36253172.624   153399069.557          40.000  
C 9  37575430.773   195665225.520          45.000    37575428.968   158994035.855          38.000  
C13  35960480.833   187255740.193          48.000    35960483.424   152160597.379          40.000  
C14  25774331.421   134213833.295          37.000    25774331.189   109059787.455          34.000  
C16  36890678.966   192099715.664          48.000    36890679.431   156096821.789          38.000  
C23  22394062.428   116611841.102          51.000    22394056.638    94756682.709          44.000  
C24  25883297.009   134781339.313          38.000    25883300.493   109522931.064          33.000  
C25  21976465.666   114437458.480          50.000    21976466.273    92991513.041          43.000  
C32  24284189.424   126454208.624          46.000    24284193.462   102754444.175          39.000  
C33  24013873.849   125046813.248          47.000    24013888.752   101612912.104          40.000  
> 2024  6 26 12 50 33.0000000  0 30                     
G10  20308507.985   106722003.040          50.000    20308509.396    83160052.404          45.000  
G12  21718218.811   114130255.397          46.000    21718219.937    88932792.076          41.000  
G23  20954896.143   110118839.621          45.000    20954898.108    85806954.442          45.000  
G24  24033990.634   126299692.813          37.000    24033999.336    98415476.923          36.000  
G25  20520181.196   107834528.750          46.000    20520186.664    84027051.285          43.000  
G28  22002805.535   115625736.359          43.000    22002808.805    90098086.185          43.000  
G31  24428686.081   128373634.462          37.000    24428691.584   100031426.006          30.000  
G32  21700640.589   114037791.300          48.000    21700644.538    88860713.414          43.000  
R 5  22497316.379   120261319.422          45.000                                                  
R 6  19674320.796   104985957.921          40.000                                                  
R 7  21748073.910   116419188.438          51.000                                                  
R 9  19695626.604   105173737.607          51.000    19695626.425    81801669.4541         23.000  
R10  22915730.255   122153799.632          39.000                                                  
R16  19973701.355   106696196.876          52.000                                                  
C 1  37081170.220   193091403.288          45.000    37081171.525   156902616.005          36.000  
C 2  37748593.577   196566788.700          41.000    37748594.167   159726720.190          34.000  
C 3  36793236.664   191592036.040          46.000    36793236.146   155684251.308          38.000  
C 4  38425259.615   200090387.224          41.000    38425258.811   162589938.415          32.000  
C 5  40179377.240   209224584.317          36.000    40179379.438   170012173.610          29.000  
C 6  36436971.357   189736990.279          46.000    36436968.051   154176878.913          39.000  
C 8  36253366.842   188780863.402          45.000    36253363.269   153399876.376          40.000  
C 9  37575445.086   195665300.520          44.000    37575443.049   158994096.808          38.000  
C13  35960617.281   187256451.149          48.000    35960619.801   152161175.101          40.000  
C14  25774855.627   134216558.761          37.000    25774854.483   109062002.129          32.000  
C16  36890717.563   192099917.698          48.000    36890717.903   156096985.954          38.000  
C23  22393760.441   116610269.227          50.000    22393754.634    94755405.442          44.000  
C24  25883884.793   134784400.083          38.000    25883888.241   109525418.171          33.000  
C25  21976736.471   114438869.197          49.000    21976736.918    92992659.354          44.000  
C32  24283688.305   126451599.382          46.000    24283692.254   102752323.940          40.000  
C33  24014287.821   125048969.227          47.000    24014302.598   101614663.999          40.000  
> 2024  6 26 12 50 34.0000000  0 30                     
G10  20308459.149   106721746.581          50.000    20308461.293    83159852.552          46.000  
G12  21718348.290   114130935.429          45.000    21718350.113    88933321.951          42.000  
G23  20955346.692   110121207.806          45.000    20955349.337    85808799.776          46.000  
G24  24034597.556   126302883.994          36.000    24034604.167    98417963.512          37.000  
G25  20519947.094   107833298.354          46.000    20519951.544    84026092.523          44.000  
G28  22002460.109   115623922.629          43.000    22002464.058    90096672.890          44.000  
G31  24428106.874   128370595.075          37.000    24428114.486   100029057.609          31.000  
G32  21700341.158   114036218.629          48.000    21700345.125    88859487.933          44.000  
R 5  22497800.397   120263906.708          45.000                                                  
R 6  19674176.754   104985188.566          40.000                                                  
R 7  21747490.880   116416068.291          51.000                                                  
R 9  19695239.042   105171668.461          51.000    19695240.490    81800063.481          25.000  
R10  22914949.379   122149638.479          39.000                                                  
R16  19974114.969   106698406.419          52.000                                                  
C 1  37081177.761   193091443.025          45.000    37081179.083   156902648.300          37.000  
C 2  37748597.509   196566808.766          41.000    37748597.616   159726736.535          35.000  
C 3  36793244.384   191592075.705          46.000    36793243.723   155684283.551          39.000  
C 4  38425266.441   200090423.283          42.000    38425265.726   162589967.678          34.000  
C 5  40179375.864   209224578.347          37.000    40179378.026   170012168.726          30.000  
C 6  36436992.889   189737103.351          46.000    36436989.369   154176970.791          40.000  
C 8  36253555.897   188781848.436          45.000    36253552.412   153400676.806          41.000  
C 9  37575457.898   195665367.492          44.000    37575455.789   158994151.200          38.000  
C13  35960752.335   187257154.210          48.000    35960754.712   152161746.391          41.000  
C14  25775377.938   134219276.295          37.000    25775376.312   109064210.383          34.000  
C16  36890754.874   192100111.673          48.000    36890755.285   156097143.577          39.000  
C23  22393457.204   116608689.706          50.000    22393451.218    94754121.951          44.000  
C24  25884471.576   134787452.793          39.000    25884474.310   109527898.726          34.000  
C25  21977006.115   114440272.217          50.000    21977006.383    92993799.433          44.000  
C32  24283185.703   126448982.152          46.000    24283189.473   102750197.249          41.000  
C33  24014700.381   125051117.439          47.000    24014715.158   101616409.588          40.000  
> 2024  6 26 12 50 35.0000000  0 30                     
G10  20308413.404   106721506.279          50.000    20308416.102    83159665.318          45.000  
G12  21718480.664   114131631.630          46.000    21718482.987    88933864.473          40.000  
G23  20955800.244   110123592.004          45.000    20955803.210    85810657.600          45.000  
G24  24035207.711   126306090.627          36.000    24035216.682    98420462.185          36.000  
G25  20519715.959   107832084.132          46.000    20519721.105    84025146.383          43.000  
G28  22002118.274   115622124.740          43.000    22002121.562    90095271.943          43.000  
G31  24427531.367   128367571.440          37.000    24427537.799   100026701.539          30.000  
G32  21700044.961   114034661.573          48.000    21700048.106    88858274.640          43.000  
R 5  22498287.435   120266510.143          45.000                                                  
R 6  19674035.463   104984435.424          40.000                                                  
R 7  21746910.780   116412963.999          51.000                                                  
R 9  19694854.751   105169615.797          51.000    19694853.339    81798461.7001         23.000  
R10  22914171.773   122145493.322          39.000                                                  
R16  19974531.639   106700632.383          52.000                                                  
C 1  37081188.304   193091498.136          45.000    37081189.536   156902693.117          36.000  
C 2  37748604.888   196566844.206          41.000    37748604.066   159726765.286          34.000  
C 3  36793254.944   191592130.738          46.000    36793254.158   155684328.248          38.000  
C 4  38425276.073   200090474.699          41.000    38425275.537   162590009.511          32.000  
C 5  40179378.276   209224587.736          36.000    40179379.742   170012176.363          30.000  
C 6  36437017.566   189737231.802          45.000    36437014.046   154177075.163          39.000  
C 8  36253748.274   188782849.006          45.000    36253744.683   153401489.842          39.000  
C 9  37575473.873   195665449.834          44.000    37575471.371   158994218.160          38.000  
C13  35960890.409   187257872.852          47.000    35960892.911   152162330.344          40.000  
C14  25775902.555   134222009.461          37.000    25775901.143   109066431.241          33.000  
C16  36890795.133   192100320.998          47.000    36890795.669   156097313.663          38.000  
C23  22393156.968   116607125.979          50.000    22393151.000    94752851.283          43.000  
C24  25885060.753   134790520.916          38.000    25885063.398   109530391.814          33.000  
C25  21977278.635   114441690.980          49.000    21977278.921    92994952.298          43.000  
C32  24282686.210   126446380.385          45.000    24282689.855   102748083.080          39.000  
C33  24015116.014   125053281.313          47.000    24015130.863   101618167.927          39.000  
> 2024  6 26 12 50 36.0000000  0 30                     
G10  20308367.981   106721267.685          50.000    20308371.680    83159479.389          46.000  
G12  21718613.556   114132329.544          45.000    21718615.343    88934408.286          41.000  
G23  20956254.278   110125977.758          45.000    20956256.493    85812516.619          46.000  
G24  24035818.117   126309298.322          36.000    24035824.586    98422961.681          37.000  
G25  20519485.252   107830871.609          46.000    20519490.773    84024201.541          44.000  
G28  22001776.440   115620328.200          43.000    22001777.887    90093872.029          44.000  
G31  24426956.431   128364548.984          37.000    24426961.559   100024346.429          30.000  
G32  21699748.835   114033105.652          48.000    21699752.391    88857062.243          44.000  
R 5  22498774.920   120269114.966          45.000                                                  
R 6  19673894.602   104983683.805          40.000                                                  
R 7  21746331.395   116409860.815          51.000                                                  
R 9  19694470.728   105167564.935          51.000    19694467.476    81796863.192          24.000  
R10  22913394.381   122141349.449          39.000                                                  
R16  19974948.666   106702860.076          52.000                                                  
C 1  37081199.257   193091554.280          45.000    37081200.419   156902738.693          37.000  
C 2  37748611.875   196566880.652          41.000    37748611.196   159726794.906          36.000  
C 3  36793265.648   191592186.794          46.000    36793264.969   155684373.801          39.000  
C 4  38425286.472   200090527.140          41.000    38425285.543   162590052.084          33.000  
C 5  40179380.260   209224598.146          37.000    40179381.832   170012184.817          31.000  
C 6  36437042.494   189737361.297          46.000    36437038.920   154177180.404          41.000  
C 8  36253940.795   188783850.809          45.000    36253937.079   153402303.889          41.000  
C 9  37575489.776   195665533.244          44.000    37575487.542   158994285.913          39.000  
C13  35961028.626   187258592.708          48.000    35961031.003   152162915.291          41.000  
C14  25776427.332   134224743.734          37.000    25776426.225   109068653.104          34.000  
C16  36890835.463   192100531.366          48.000    36890835.767   156097484.607          39.000  
C23  22392856.840   116605563.694          51.000    22392850.979    94751581.804          45.000  
C24  25885650.359   134793590.110          39.000    25885652.807   109532885.828          34.000  
C25  21977551.209   114443111.173          50.000    21977551.727    92996106.336          44.000  
C32  24282186.574   126443779.724          46.000    24282190.506   102745969.848          40.000  
C33  24015531.737   125055446.509          47.000    24015546.497   101619927.305          41.000  
> 2024  6 26 12 50 37.0000000  0 30                     
G10  20308320.145   106721016.582          50.000    20308323.130    83159283.719          45.000  
G12  21718743.946   114133014.985          45.000    21718746.233    88934942.391          41.000  
G23  20956705.971   110128350.876          45.000    20956707.883    85814365.797          45.000  
G24  24036425.932   126312492.795          37.000    24036432.007    98425450.892          36.000  
G25  20519252.114   107829646.582          46.000    20519257.189    84023246.986          43.000  
G28  22001431.907   115618518.837          43.000    22001435.499    90092462.153          43.000  
G31  24426378.582   128361513.617          37.000    24426384.390   100021981.115          30.000  
G32  21699450.226   114031536.682          48.000    21699453.782    88855839.687          44.000  
R 5  22499259.707   120271706.769          45.000                                                  
R 6  19673751.149   104982919.316          40.000                                                  
R 7  21745749.097   116406744.261          51.000                                                  
R 9  19694084.167   105165501.388          51.000    19694084.150    81795266.015          24.000  
R10  22912614.755   122137192.514          39.000                                                  
R16  19975363.299   106705075.060          52.000                                                  
C 1  37081207.423   193091597.376          45.000    37081208.370   156902773.748          36.000  
C 2  37748616.021   196566904.048          41.000    37748615.789   159726813.889          35.000  
C 3  36793273.868   191592229.806          46.000    36793273.510   155684408.761          38.000  
C 4  38425293.691   200090566.526          41.000    38425293.388   162590084.105          32.000  
C 5  40179379.224   209224595.509          36.000    40179381.118   170012182.652          31.000  
C 6  36437064.937   189737477.779          45.000    36437061.131   154177275.053          40.000  
C 8  36254130.761   188784839.774          45.000    36254126.830   153403107.511          40.000  
C 9  37575503.178   195665603.661          44.000    37575501.051   158994343.140          38.000  
C13  35961164.341   187259299.707          48.000    35961166.896   152163489.787          40.000  
C14  25776950.073   134227465.208          37.000    25776948.768   109070864.506          32.000  
C16  36890873.310   192100728.699          47.000    36890873.685   156097644.980          38.000  
C23  22392554.443   116603988.798          50.000    22392548.546    94750302.084          44.000  
C24  25886236.999   134796646.291          38.000    25886239.769   109535369.232          33.000  
C25  21977821.514   114444518.697          49.000    21977822.014    92997250.048          43.000  
C32  24281684.759   126441166.134          46.000    24281688.493   102743846.076          40.000  
C33  24015945.083   125057598.975          47.000    24015960.093   101621676.374          40.000  
> 2024  6 26 12 50 38.0000000  0 30                     
G10  20308274.883   106720778.466          50.000    20308277.421    83159098.183          45.000  
G12  21718876.928   114133713.421          45.000    21718879.215    88935486.620          41.000  
G23  20957159.987   110130736.829          45.000    20957163.007    85816224.982          45.000  
G24  24037035.694   126315699.557          37.000    24037042.985    98427949.686          36.000  
G25  20519021.390   107828434.540          46.000    20519025.821    84022302.529          43.000  
G28  22001089.966   115616722.133          43.000    22001093.236    90091062.108          44.000  
G31  24425803.128   128358490.748          37.000    24425808.007   100019625.680          30.000  
G32  21699154.065   114029980.139          48.000    21699157.603    88854626.797          44.000  
R 5  22499746.905   120274311.463          45.000                                                  
R 6  19673610.377   104982167.827          40.000                                                  
R 7  21745169.068   116403640.304          51.000                                                  
R 9  19693700.234   105163451.117          51.000    19693699.287    81793671.246          24.000  
R10  22911836.756   122133048.322          39.000                                                  
R16  19975780.344   106707303.222          52.000                                                  
C 1  37081217.948   193091652.676          45.000    37081218.967   156902818.684          36.000  
C 2  37748622.811   196566939.674          41.000    37748622.579   159726842.869          35.000  
C 3  36793284.625   191592285.039          46.000    36793283.928   155684453.626          38.000  
C 4  38425303.805   200090618.142          41.000    38425303.234   162590126.040          32.000  
C 5  40179380.725   209224605.078          37.000    40179382.958   170012190.485          30.000  
C 6  36437089.579   189737606.480          46.000    36437086.005   154177379.617          40.000  
C 8  36254322.978   188785841.150          45.000    36254319.208   153403921.192          40.000  
C 9  37575519.046   195665686.323          44.000    37575516.973   158994410.307          38.000  
C13  35961302.469   187260019.116          47.000    35961304.899   152164074.352          41.000  
C14  25777475.261   134230199.022          36.000    25777473.742   109073085.977          34.000  
C16  36890913.658   192100938.254          47.000    36890914.176   156097815.234          39.000  
C23  22392254.547   116602426.534          50.000    22392248.579    94749032.618          43.000  
C24  25886826.159   134799714.732          39.000    25886829.125   109537862.537          34.000  
C25  21978094.356   114445938.833          49.000    21978094.820    92998404.025          43.000  
C32  24281185.444   126438564.827          45.000    24281189.018   102741732.332          40.000  
C33  24016360.967   125059763.965          47.000    24016375.816   101623435.606          40.000  
> 2024  6 26 12 50 39.0000000  0 30                     
G10  20308229.675   106720540.740          50.000    20308233.052    83158912.945          45.000  
G12  21719009.837   114134412.290          46.000    21719010.874    88936031.216          41.000  
G23  20957613.914   110133123.055          45.000    20957616.666    85818084.369          45.000  
G24  24037646.422   126318906.064          37.000    24037654.713    98430448.238          36.000  
G25  20518790.915   107827222.916          46.000    20518796.758    84021358.420          43.000  
G28  22000748.453   115614925.496          43.000    22000750.097    90089662.152          43.000  
G31  24425227.406   128355467.843          37.000    24425234.036   100017270.150          30.000  
G32  21698857.868   114028423.452          48.000    21698861.656    88853413.780          44.000  
R 5  22500234.319   120276916.286          45.000                                                  
R 6  19673469.873   104981416.551          40.000                                                  
R 7  21744589.344   116400536.134          51.000                                                  
R 9  19693316.407   105161401.286          51.000    19693318.480    81792087.224          23.000  
R10  22911059.328   122128904.160          39.000                                                  
R16  19976197.622   106709531.784          52.000                                                  
C 1  37081228.616   193091707.734          45.000    37081229.903   156902863.430          37.000  
C 2  37748629.458   196566975.035          41.000    37748629.101   159726871.622          36.000  
C 3  36793294.989   191592340.001          46.000    36793294.471   155684498.290          38.000  
C 4  38425313.919   200090669.493          42.000    38425312.936   162590167.770          33.000  
C 5  40179382.815   209224614.432          36.000    40179384.924   170012198.089          31.000  
C 6  36437114.184   189737734.934          46.000    36437110.843   154177483.994          40.000  
C 8  36254515.356   188786842.485          46.000    36254511.496   153404734.870          40.000  
C 9  37575534.967   195665768.756          44.000    37575532.805   158994477.276          38.000  
C13  35961440.596   187260738.487          48.000    35961442.937   152164658.914          41.000  
C14  25778000.128   134232932.766          37.000    25777998.716   109075307.402          34.000  
C16  36890953.756   192101147.558          48.000    36890954.381   156097985.323          39.000  
C23  22391954.437   116600864.453          51.000    22391948.594    94747763.297          44.000  
C24  25887414.997   134802782.960          39.000    25887418.195   109540355.776          33.000  
C25  21978366.930   114447359.090          50.000    21978367.395    92999558.098          44.000  
C32  24280685.701   126435963.389          46.000    24280689.400   102739618.439          40.000  
C33  24016776.672   125061928.996          47.000    24016791.414   101625194.883          40.000  
> 2024  6 26 12 50 40.0000000  0 30                     
G10  20308182.054   106720290.652          50.000    20308184.609    83158718.071          46.000  
G12  21719140.531   114135098.798          46.000    21719142.229    88936566.125          41.000  
G23  20958065.625   110135496.762          45.000    20958068.645    85819934.009          46.000  
G24  24038254.201   126322099.495          37.000    24038260.670    98432936.621          37.000  
G25  20518558.028   107825998.898          46.000    20518562.870    84020404.645          44.000  
G28  22000403.867   115613116.147          43.000    22000408.155    90088252.279          44.000  
G31  24424650.255   128352432.118          37.000    24424654.275   100014904.650          30.000  
G32  21698559.259   114026853.824          48.000    21698562.743    88852190.696          44.000  
R 5  22500719.266   120279508.250          45.000                                                  
R 6  19673326.688   104980652.512          40.000                                                  
R 7  21744006.992   116397418.755          51.000                                                  
R 9  19692930.240   105159338.938          51.000    19692936.851    81790505.769          24.000  
R10  22910279.774   122124747.008          39.000                                                  
R16  19976612.469   106711747.773          52.000                                                  
C 1  37081236.782   193091749.862          45.000    37081237.872   156902897.615          36.000  
C 2  37748633.640   196566997.489          41.000    37748633.568   159726889.827          34.000  
C 3  36793302.851   191592382.051          46.000    36793302.404   155684532.465          38.000  
C 4  38425321.514   200090707.945          41.000    38425320.352   162590199.036          32.000  
C 5  40179382.100   209224610.827          36.000    40179384.263   170012195.112          30.000  
C 6  36437136.342   189737850.491          46.000    36437132.947   154177577.899          40.000  
C 8  36254705.107   188787831.089          45.000    36254701.426   153405538.194          39.000  
C 9  37575548.547   195665838.281          44.000    37575546.314   158994533.750          38.000  
C13  35961576.169   187261445.127          48.000    35961578.688   152165233.110          41.000  
C14  25778522.654   134235653.760          36.000    25778521.153   109077518.406          34.000  
C16  36890991.585   192101343.949          48.000    36890992.085   156098144.902          39.000  
C23  22391652.129   116599289.869          51.000    22391646.303    94746483.830          44.000  
C24  25888002.227   134805838.284          39.000    25888005.032   109542838.472          34.000  
C25  21978637.413   114448766.827          49.000    21978637.789    93000701.997          43.000  
C32  24280183.636   126433349.099          46.000    24280187.460   102737494.118          40.000  
C33  24017189.982   125064081.416          47.000    24017204.688   101626943.888          40.000  
> 2024  6 26 12 50 41.0000000  0 30                     
G10  20308136.827   106720053.663          50.000    20308140.705    83158533.393          47.000  
G12  21719273.530   114135798.423          45.000    21719275.746    88937111.267          42.000  
G23  20958519.837   110137883.440          45.000    20958522.035    85821793.751          47.000  
G24  24038864.375   126325305.316          37.000    24038871.808    98435434.656          38.000  
G25  20518327.535   107824788.004          46.000    20518332.968    84019461.052          45.000  
G28  22000062.032   115611319.572          43.000    22000065.427    90086852.337          45.000  
G31  24424075.444   128349409.029          37.000    24424078.660   100012548.993          31.000  
G32  21698262.990   114025296.750          48.000    21698267.047    88850977.385          45.000  
R 5  22501206.662   120282113.255          45.000                                                  
R 6  19673186.095   104979901.596          40.000                                                  
R 7  21743426.767   116394314.107          51.000                                                  
R 9  19692546.609   105157289.975          51.000    19692556.241    81788932.434          25.000  
R10  22909502.061   122120602.765          39.000                                                  
R16  19977029.818   106713977.074          52.000                                                  
C 1  37081247.182   193091804.325          44.000    37081248.611   156902941.899          38.000  
C 2  37748640.305   196567032.266          40.000    37748640.466   159726918.136          36.000  
C 3  36793313.394   191592436.423          45.000    36793313.197   155684576.650          40.000  
C 4  38425331.288   200090758.704          41.000    38425329.858   162590240.272          34.000  
C 5  40179384.084   209224619.570          37.000    40179385.978   170012202.216          32.000  
C 6  36437161.090   189737978.390          46.000    36437157.642   154177681.857          41.000  
C 8  36254897.378   188788832.209          45.000    36254893.947   153406351.700          41.000  
C 9  37575564.236   195665920.184          44.000    37575562.235   158994600.341          40.000  
C13  35961714.439   187262164.272          48.000    35961716.976   152165817.484          42.000  
C14  25779047.146   134238387.263          37.000    25779046.073   109079739.608          35.000  
C16  36891031.575   192101552.677          47.000    36891032.094   156098314.518          40.000  
C23  22391352.286   116597728.046          50.000    22391346.461    94745214.722          45.000  
C24  25888591.064   134808905.983          38.000    25888594.227   109545331.215          35.000  
C25  21978910.363   114450187.270          50.000    21978910.827    93001856.242          45.000  
C32  24279683.893   126430747.237          45.000    24279687.860   102735379.894          41.000  
C33  24017605.830   125066246.470          47.000    24017620.804   101628703.184          41.000  
> 2024  6 26 12 50 42.0000000  0 30                     
G10  20308092.047   106719817.927          50.000    20308094.960    83158349.695          47.000  
G12  21719406.976   114136499.322          45.000    21719408.835    88937657.427          43.000  
G23  20958974.265   110140271.221          45.000    20958976.963    85823654.372          47.000  
G24  24039474.762   126328511.785          37.000    24039482.929    98437933.192          38.000  
G25  20518097.436   107823578.366          46.000    20518102.332    84018518.483          45.000  
G28  21999720.305   115609523.922          43.000    21999724.290    90085453.111          45.000  
G31  24423500.258   128346386.744          37.000    24423503.403   100010193.968          32.000  
G32  21697966.793   114023740.383          48.000    21697971.010    88849764.638          45.000  
R 5  22501694.272   120284719.257          45.000                                                  
R 6  19673045.555   104979151.776          40.000                                                  
R 7  21742847.168   116391210.153          51.000                                                  
R 9  19692163.140   105155242.337          51.000    19692173.254    81787360.808          25.000  
R10  22908725.098   122116459.386          39.000                                                  
R16  19977447.435   106716207.640          52.000                                                  
C 1  37081257.993   193091859.378          44.000    37081259.422   156902986.627          38.000  
C 2  37748647.238   196567067.660          41.000    37748647.578   159726946.891          36.000  
C 3  36793324.187   191592491.395          46.000    36793323.722   155684621.342          40.000  
C 4  38425341.187   200090810.066          42.000    38425339.829   162590282.009          35.000  
C 5  40179385.746   209224628.872          37.000    40179387.836   170012209.827          32.000  
C 6  36437185.750   189738106.899          46.000    36437182.676   154177786.276          41.000  
C 8  36255089.720   188789834.134          45.000    36255086.450   153407165.828          42.000  
C 9  37575579.836   195666002.721          44.000    37575578.335   158994667.423          40.000  
C13  35961852.781   187262884.219          48.000    35961855.479   152166402.490          42.000  
C14  25779572.334   134241121.554          37.000    25779571.119   109081961.439          34.000  
C16  36891071.852   192101762.011          48.000    36891072.549   156098484.616          40.000  
C23  22391052.444   116596167.239          51.000    22391046.923    94743946.442          46.000  
C24  25889180.438   134811974.325          39.000    25889183.762   109547824.534          35.000  
C25  21979183.133   114451608.688          50.000    21979183.902    93003011.263          45.000  
C32  24279184.400   126428146.060          46.000    24279188.653   102733266.238          41.000  
C33  24018021.678   125068412.411          47.000    24018036.867   101630463.181          42.000  
> 2024  6 26 12 50 43.0000000  0 30                     
G10  20308044.837   106719569.896          50.000    20308048.358    83158156.431          47.000  
G12  21719538.063   114137187.934          45.000    21719540.244    88938194.038          42.000  
G23  20959426.261   110142646.563          45.000    20959429.085    85825505.288          46.000  
G24  24040082.256   126331705.216          37.000    24040088.581    98440421.579          37.000  
G25  20517864.835   107822356.417          46.000    20517870.517    84017566.343          45.000  
G28  21999376.166   115607715.636          44.000    21999379.900    90084044.088          45.000  
G31  24422922.445   128343351.682          37.000    24422925.590   100007828.987          31.000  
G32  21697668.113   114022171.155          48.000    21697671.937    88848541.869          45.000  
R 5  22502179.380   120287312.442          45.000                                                  
R 6  19672902.245   104978389.227          40.000                                                  
R 7  21742264.816   116388093.031          51.000                                                  
R 9  19691777.348   105153182.249          51.000    19691790.750    81785783.663          24.000  
R10  22907945.437   122112303.100          39.000                                                  
R16  19977862.568   106718425.702          52.000                                                  
C 1  37081266.070   193091901.569          44.000    37081267.124   156903020.895          36.000  
C 2  37748651.384   196567090.183          41.000    37748651.705   159726965.144          35.000  
C 3  36793331.978   191592533.508          46.000    36793332.103   155684655.544          38.000  
C 4  38425348.335   200090848.568          41.000    38425347.209   162590313.283          33.000  
C 5  40179385.156   209224625.374          37.000    40179387.175   170012206.954          30.000  
C 6  36437208.068   189738222.570          46.000    36437204.780   154177880.243          40.000  
C 8  36255279.864   188790823.398          45.000    36255276.183   153407969.703          40.000  
C 9  37575593.130   195666072.446          44.000    37575591.665   158994724.062          38.000  
C13  35961988.639   187263591.493          48.000    35961991.248   152166977.211          41.000  
C14  25780095.128   134243843.153          37.000    25780093.895   109084172.949          34.000  
C16  36891109.717   192101958.486          48.000    36891110.396   156098644.271          39.000  
C23  22390750.315   116594594.012          51.000    22390744.775    94742668.064          44.000  
C24  25889767.507   134815029.843          39.000    25889770.491   109550307.371          34.000  
C25  21979453.831   114453017.657          50.000    21979454.474    93004156.152          44.000  
C32  24278682.298   126425532.134          46.000    24278686.462   102731142.201          41.000  
C33  24018435.328   125070565.808          47.000    24018450.517   101632212.995          40.000  
> 2024  6 26 12 50 44.0000000  0 30                     
G10  20308000.147   106719335.099          50.000    20308003.471    83157973.477          46.000  
G12  21719671.563   114137889.828          45.000    21719671.849    88938740.970          42.000  
G23  20959880.921   110145035.020          45.000    20959883.262    85827366.418          46.000  
G24  24040692.376   126334911.212          37.000    24040699.380    98442919.740          37.000  
G25  20517634.789   107821147.724          46.000    20517639.489    84016624.513          44.000  
G28  21999034.635   115605920.275          43.000    21999037.476    90082645.134          44.000  
G31  24422347.795   128340329.438          37.000    24422350.762   100005473.998          30.000  
G32  21697371.844   114020614.623          48.000    21697375.954    88847328.974          44.000  
R 5  22502666.936   120289918.826          45.000                                                  
R 6  19672761.974   104977639.950          40.000                                                  
R 7  21741684.788   116384988.736          51.000                                                  
R 9  19691394.075   105151135.672          51.000    19691405.797    81784206.095          25.000  
R10  22907168.080   122108159.893          39.000                                                  
R16  19978280.310   106720657.241          52.000                                                  
C 1  37081276.434   193091956.238          44.000    37081277.809   156903065.358          37.000  
C 2  37748658.335   196567125.187          41.000    37748658.335   159726993.615          34.000  
C 3  36793342.645   191592588.101          45.000    36793342.217   155684699.898          39.000  
C 4  38425357.788   200090899.527          41.000    38425356.876   162590354.677          33.000  
C 5  40179386.836   209224634.324          37.000    40179388.944   170012214.205          29.000  
C 6  36437232.549   189738350.736          45.000    36437229.046   154177984.402          41.000  
C 8  36255472.117   188791825.344          45.000    36255468.597   153408783.849          40.000  
C 9  37575609.141   195666154.669          44.000    37575607.211   158994790.884          39.000  
C13  35962126.892   187264311.449          47.000    35962129.358   152167562.231          41.000  
C14  25780620.191   134246577.398          37.000    25780618.994   109086394.775          34.000  
C16  36891149.797   192102167.468          48.000    36891150.101   156098814.090          39.000  
C23  22390450.776   116593033.687          50.000    22390444.880    94741400.159          44.000  
C24  25890356.917   134818097.900          39.000    25890359.687   109552800.440          34.000  
C25  21979726.852   114454439.476          49.000    21979727.227    93005311.501          44.000  
C32  24278183.145   126422930.771          46.000    24278186.826   102729028.367          41.000  
C33  24018851.301   125072731.990          47.000    24018866.526   101633973.181          40.000  
> 2024  6 26 12 50 45.0000000  0 30                     
G10  20307955.778   106719101.473          50.000    20307958.905    83157791.438          46.000  
G12  21719805.491   114138592.901          46.000    21719807.010    88939288.813          41.000  
G23  20960335.652   110147424.503          45.000    20960337.850    85829228.350          45.000  
G24  24041302.370   126338117.669          37.000    24041309.786    98445418.331          36.000  
G25  20517405.101   107819940.198          46.000    20517410.193    84015683.591          44.000  
G28  21998693.194   115604125.749          43.000    21998695.320    90081246.797          44.000  
G31  24421772.556   128337307.915          37.000    24421776.290   100003119.579          30.000  
G32  21697075.862   114019058.711          48.000    21697078.828    88846116.612          44.000  
R 5  22503154.671   120292526.076          45.000                                                  
R 6  19672621.791   104976891.683          40.000                                                  
R 7  21741105.331   116381884.997          51.000                                                  
R 9  19691011.106   105149090.344          51.000    19691025.312    81782631.480          24.000  
R10  22906391.171   122104017.448          39.000                                                  
R16  19978698.302   106722889.970          52.000                                                  
C 1  37081286.958   193092011.422          45.000    37081288.352   156903110.185          37.000  
C 2  37748665.071   196567160.699          41.000    37748665.071   159727022.515          35.000  
C 3  36793353.206   191592643.198          46.000    36793352.581   155684744.668          39.000  
C 4  38425367.633   200090950.989          42.000    38425366.543   162590396.524          34.000  
C 5  40179388.801   209224643.786          36.000    40179390.767   170012221.981          31.000  
C 6  36437257.387   189738479.425          46.000    36437253.848   154178088.977          40.000  
C 8  36255664.781   188792827.981          46.000    36255660.921   153409598.586          41.000  
C 9  37575625.134   195666237.433          44.000    37575622.900   158994858.144          39.000  
C13  35962265.395   187265032.123          48.000    35962267.664   152168147.840          41.000  
C14  25781145.040   134249312.328          37.000    25781144.218   109088617.097          33.000  
C16  36891189.931   192102376.941          48.000    36891190.270   156098984.290          39.000  
C23  22390151.291   116591474.296          51.000    22390145.305    94740133.035          45.000  
C24  25890945.826   134821166.474          39.000    25890948.971   109555293.887          34.000  
C25  21980000.069   114455862.197          50.000    21980000.498    93006467.570          44.000  
C32  24277683.438   126420330.014          46.000    24277687.351   102726915.050          40.000  
C33  24019267.292   125074898.972          47.000    24019282.356   101635734.039          40.000  
> 2024  6 26 12 50 46.0000000  0 30                     
G10  20307908.961   106718855.580          50.000    20307912.374    83157599.827          46.000  
G12  21719936.864   114139283.720          45.000    21719938.562    88939827.127          42.000  
G23  20960788.024   110149801.570          45.000    20960790.258    85831080.613          46.000  
G24  24041909.596   126341311.188          37.000    24041917.369    98447906.764          37.000  
G25  20517172.964   107818720.422          46.000    20517177.557    84014733.079          44.000  
G28  21998349.215   115602318.627          43.000    21998351.574    90079838.621          44.000  
G31  24421195.440   128334273.666          36.000    24421198.692   100000755.179          30.000  
G32  21696777.324   114017489.976          48.000    21696780.987    88844894.182          44.000  
R 5  22503640.208   120295120.520          45.000                                                  
R 6  19672478.928   104976130.749          40.000                                                  
R 7  21740523.015   116378768.138          51.000                                                  
R 9  19690625.707   105147032.588          51.000    19690639.699    81781058.564          24.000  
R10  22905611.135   122099862.168          39.000                                                  
R16  19979113.918   106725110.212          52.000                                                  
C 1  37081295.071   193092053.782          45.000    37081296.304   156903144.564          37.000  
C 2  37748669.128   196567183.406          41.000    37748669.110   159727040.928          35.000  
C 3  36793361.479   191592685.480          46.000    36793360.479   155684779.024          38.000  
C 4  38425375.156   200090989.653          42.000    38425374.013   162590427.888          33.000  
C 5  40179388.337   209224640.439          37.000    40179390.142   170012219.184          31.000  
C 6  36437279.616   189738595.320          46.000    36437276.167   154178183.149          40.000  
C 8  36255854.836   188793818.019          45.000    36255851.030   153410403.063          41.000  
C 9  37575638.500   195666307.423          44.000    37575636.302   158994915.002          39.000  
C13  35962401.342   187265740.177          48.000    35962403.594   152168723.180          41.000  
C14  25781667.656   134252034.613          36.000    25781666.959   109090829.184          33.000  
C16  36891227.831   192102573.611          48.000    36891228.188   156099144.091          39.000  
C23  22389849.448   116589902.520          51.000    22389843.390    94738855.834          45.000  
C24  25891532.824   134824222.289          39.000    25891535.737   109557776.968          33.000  
C25  21980270.821   114457272.486          50.000    21980271.410    93007613.546          44.000  
C32  24277181.640   126417716.529          46.000    24277185.428   102724791.375          40.000  
C33  24019681.210   125077053.439          47.000    24019696.059   101637484.703          41.000  
> 2024  6 26 12 50 47.0000000  0 30                     
G10  20307864.610   106718622.885          50.000    20307868.381    83157418.512          45.000  
G12  21720070.650   114139987.765          45.000    21720071.829    88940375.740          41.000  
G23  20961242.701   110152191.708          45.000    20961245.435    85832943.056          45.000  
G24  24042519.680   126344517.243          37.000    24042529.579    98450404.955          36.000  
G25  20516943.419   107817513.832          46.000    20516947.261    84013792.905          43.000  
G28  21998007.720   115600524.371          43.000    21998011.491    90078440.530          43.000  
G31  24420620.129   128331252.138          36.000    24420624.578    99998400.812          29.000  
G32  21696481.199   114015933.882          48.000    21696483.825    88843681.664          43.000  
R 5  22504127.961   120297728.072          45.000                                                  
R 6  19672338.871   104975383.060          40.000                                                  
R 7  21739943.022   116375664.091          51.000                                                  
R 9  19690242.899   105144988.298          51.000    19690254.889    81779485.197          23.000  
R10  22904834.404   122095719.887          39.000                                                  
R16  19979532.089   106727343.866          52.000                                                  
C 1  37081305.471   193092108.574          45.000    37081306.936   156903189.121          36.000  
C 2  37748676.168   196567218.512          41.000    37748676.096   159727069.461          34.000  
C 3  36793372.165   191592740.198          46.000    36793371.289   155684823.503          38.000  
C 4  38425385.109   200091040.757          41.000    38425383.823   162590469.481          32.000  
C 5  40179389.820   209224649.526          36.000    40179392.018   170012226.586          31.000  
C 6  36437304.185   189738723.646          46.000    36437300.969   154178287.434          39.000  
C 8  36256047.321   188794820.671          45.000    36256043.586   153411217.802          40.000  
C 9  37575654.350   195666389.888          44.000    37575652.152   158994982.002          38.000  
C13  35962539.541   187266460.859          48.000    35962541.989   152169308.808          40.000  
C14  25782193.041   134254769.512          37.000    25782192.040   109093051.487          33.000  
C16  36891268.000   192102782.720          48.000    36891268.179   156099314.024          38.000  
C23  22389550.231   116588343.591          50.000    22389543.906    94737589.086          43.000  
C24  25892121.823   134827290.555          39.000    25892124.914   109560270.202          33.000  
C25  21980544.324   114458695.582          50.000    21980544.664    93008769.930          43.000  
C32  24276682.129   126415115.574          46.000    24276685.953   102722677.879          40.000  
C33  24020097.290   125079220.648          47.000    24020112.229   101639245.761          39.000  
> 2024  6 26 12 50 48.0000000  0 30                     
G10  20307820.671   106718391.794          50.000    20307823.190    83157238.437          46.000  
G12  21720205.168   114140693.424          45.000    21720204.810    88940925.581          42.000  
G23  20961697.932   110154583.292          45.000    20961700.255    85834806.635          46.000  
G24  24043130.532   126347724.188          37.000    24043136.322    98452903.900          36.000  
G25  20516714.231   107816308.845          46.000    20516717.965    84012853.979          44.000  
G28  21997666.636   115598731.382          44.000    21997669.585    90077043.380          44.000  
G31  24420045.390   128328231.787          36.000    24420050.071    99996047.248          30.000  
G32  21696185.305   114014378.835          48.000    21696188.897    88842469.939          44.000  
R 5  22504616.071   120300336.969          45.000                                                  
R 6  19672199.314   104974636.777          40.000                                                  
R 7  21739363.602   116372561.069          51.000                                                  
R 9  19689860.466   105142945.695          51.000    19689871.920    81777914.169          25.000  
R10  22904057.602   122091578.866          39.000                                                  
R16  19979950.510   106729579.133          52.000                                                  
C 1  37081316.281   193092164.286          45.000    37081317.693   156903234.371          37.000  
C 2  37748683.083   196567254.603          41.000    37748683.119   159727098.779          35.000  
C 3  36793382.833   191592795.830          46.000    36793382.011   155684868.701          39.000  
C 4  38425395.080   200091092.757          42.000    38425393.812   162590511.699          32.000  
C 5  40179391.625   209224659.552          37.000    40179393.930   170012234.781          31.000  
C 6  36437329.077   189738852.914          46.000    36437325.753   154178392.456          40.000  
C 8  36256240.342   188795824.452          46.000    36256236.679   153412033.468          41.000  
C 9  37575670.414   195666473.300          45.000    37575668.091   158995049.788          39.000  
C13  35962678.241   187267182.673          48.000    35962680.671   152169895.324          41.000  
C14  25782718.676   134257505.469          37.000    25782717.461   109095274.764          34.000  
C16  36891308.152   192102992.769          48.000    36891308.813   156099484.703          39.000  
C23  22389250.961   116586786.020          51.000    22389244.867    94736323.422          45.000  
C24  25892710.571   134830359.798          39.000    25892714.288   109562764.190          35.000  
C25  21980817.702   114460120.003          50.000    21980818.167    93009927.394          45.000  
C32  24276182.600   126412515.639          46.000    24276186.657   102720565.238          41.000  
C33  24020513.656   125081389.086          47.000    24020528.631   101641007.793          41.000  
> 2024  6 26 12 50 49.0000000  0 30                     
G10  20307774.408   106718148.613          50.000    20307777.374    83157048.952          46.000  
G12  21720337.130   114141386.995          45.000    21720337.738    88941466.035          42.000  
G23  20962150.591   110156962.652          45.000    20962153.074    85836660.672          46.000  
G24  24043737.882   126350918.373          37.000    24043745.334    98455392.859          37.000  
G25  20516482.559   107815091.783          46.000    20516486.651    84011905.609          44.000  
G28  21997323.033   115596925.980          44.000    21997325.660    90075636.578          44.000  
G31  24419467.845   128325198.846          36.000    24419472.080    99993683.950          30.000  
G32  21695886.946   114012811.147          48.000    21695890.234    88841248.360          44.000  
R 5  22505101.733   120302933.291          45.000                                                  
R 6  19672057.059   104973878.063          40.000                                                  
R 7  21738781.429   116369445.101          51.000                                                  
R 9  19689475.711   105140890.882          51.000                                                  
R10  22903278.334   122087425.145          39.000                                                  
R16  19980366.751   106731802.132          52.000                                                  
C 1  37081324.537   193092207.356          45.000    37081326.002   156903269.353          37.000  
C 2  37748687.568   196567278.046          41.000    37748687.140   159727117.833          35.000  
C 3  36793390.981   191592838.844          46.000    36793390.016   155684903.669          38.000  
C 4  38425402.514   200091132.149          42.000    38425401.460   162590543.717          34.000  
C 5  40179390.695   209224656.941          37.000    40179393.144   170012232.642          31.000  
C 6  36437351.288   189738969.579          46.000    36437348.090   154178487.280          40.000  
C 8  36256430.576   188796815.816          45.000    36256426.948   153412839.011          41.000  
C 9  37575683.887   195666544.101          45.000    37575681.975   158995107.337          39.000  
C13  35962814.474   187267892.026          48.000    35962816.851   152170471.744          41.000  
C14  25783241.541   134260229.022          36.000    25783240.416   109097487.814          34.000  
C16  36891346.320   192103190.177          48.000    36891346.642   156099645.126          39.000  
C23  22388949.510   116585216.236          51.000    22388943.596    94735047.856          45.000  
C24  25893298.122   134833416.436          39.000    25893301.375   109565247.973          35.000  
C25  21981088.882   114461532.171          50.000    21981089.419    93011074.899          44.000  
C32  24275680.999   126409903.152          46.000    24275684.841   102718442.385          40.000  
C33  24020927.807   125083545.199          47.000    24020942.674   101642759.792          41.000  
> 2024  6 26 12 50 50.0000000  0 30                     
G10  20307730.146   106717916.381          50.000    20307733.041    83156867.969          45.000  
G12  21720471.166   114142091.562          45.000    21720471.523    88942015.035          41.000  
G23  20962605.304   110159352.830          45.000    20962607.680    85838523.160          45.000  
G24  24044348.235   126354122.843          37.000    24044354.257    98457889.879          36.000  
G25  20516252.978   107813885.674          46.000    20516256.301    84010965.755          43.000  
G28  21996981.538   115595131.186          43.000    21996984.057    90074238.047          43.000  
G31  24418893.088   128322176.467          36.000    24418896.447    99991328.795          30.000  
G32  21695590.499   114011253.862          48.000    21695593.698    88840034.893          43.000  
R 5  22505589.522   120305540.487          45.000                                                  
R 6  19671916.805   104973130.321          40.000                                                  
R 7  21738201.150   116366339.658          51.000                                                  
R 9  19689092.974   105138847.236          51.000                                                  
R10  22902501.174   122083282.135          39.000                                                  
R16  19980784.904   106734036.274          52.000                                                  
C 1  37081334.794   193092260.647          45.000    37081335.687   156903312.661          37.000  
C 2  37748694.359   196567311.683          41.000    37748693.876   159727145.175          35.000  
C 3  36793401.041   191592892.054          46.000    36793400.309   155684946.894          38.000  
C 4  38425412.199   200091181.709          42.000    38425410.930   162590583.984          32.000  
C 5  40179392.697   209224664.536          37.000    40179394.484   170012238.800          29.000  
C 6  36437375.626   189739096.466          46.000    36437372.195   154178590.369          40.000  
C 8  36256623.061   188797817.566          46.000    36256619.380   153413653.030          40.000  
C 9  37575699.648   195666625.164          44.000    37575697.325   158995173.188          38.000  
C13  35962952.762   187268611.807          48.000    35962954.942   152171056.618          40.000  
C14  25783766.551   134262962.926          37.000    25783765.390   109099709.352          33.000  
C16  36891386.061   192103397.810          48.000    36891386.561   156099813.825          38.000  
C23  22388650.168   116583657.098          51.000    22388644.129    94733780.916          44.000  
C24  25893887.157   134836483.315          39.000    25893890.266   109567740.054          34.000  
C25  21981362.171   114462954.926          50.000    21981362.582    93012230.999          44.000  
C32  24275181.292   126407300.973          46.000    24275184.991   102716327.901          40.000  
C33  24021343.851   125085711.809          47.000    24021358.861   101644520.354          40.000  
> 2024  6 26 12 50 51.0000000  0 30                     
G10  20307684.937   106717678.711          50.000    20307688.440    83156682.788          46.000  
G12  21720604.272   114142790.689          45.000    21720606.166    88942559.818          41.000  
G23  20963059.177   110161737.416          45.000    20963061.428    85840381.270          45.000  
G24  24044956.872   126357321.157          37.000    24044962.482    98460382.060          36.000  
G25  20516022.360   107812674.120          46.000    20516026.255    84010021.709          44.000  
G28  21996638.953   115593330.638          43.000    21996642.473    90072835.015          44.000  
G31  24418316.794   128319148.155          36.000    24418321.636    99988969.130          30.000  
G32  21695293.105   114009690.579          48.000    21695296.661    88838816.759          44.000  
R 5  22506076.381   120308141.850          45.000                                                  
R 6  19671775.746   104972376.821          40.000                                                  
R 7  21737620.032   116363228.039          51.000                                                  
R 9  19688709.273   105136798.083          51.000                                                  
R10  22901723.032   122079133.154          39.000                                                  
R16  19981202.163   106736264.881          52.000                                                  
C 1  37081343.746   193092307.869          45.000    37081344.961   156903351.070          36.000  
C 2  37748699.505   196567339.283          41.000    37748699.112   159727167.603          35.000  
C 3  36793410.155   191592939.212          46.000    36793409.672   155684985.218          39.000  
C 4  38425420.204   200091225.218          42.000    38425419.382   162590619.325          33.000  
C 5  40179393.447   209224666.077          36.000    40179394.841   170012240.002          29.000  
C 6  36437398.891   189739217.301          46.000    36437395.550   154178688.562          40.000  
C 8  36256814.277   188798813.478          45.000    36256810.686   153414462.278          40.000  
C 9  37575713.997   195666700.188          44.000    37575711.674   158995234.165          39.000  
C13  35963089.871   187269325.683          48.000    35963092.034   152171636.705          41.000  
C14  25784290.417   134265690.968          37.000    25784289.256   109101926.103          33.000  
C16  36891424.712   192103599.379          47.000    36891425.069   156099977.619          39.000  
C23  22388349.576   116582092.321          51.000    22388343.608    94732509.419          44.000  
C24  25894474.851   134839544.192          39.000    25894478.032   109570227.274          34.000  
C25  21981634.299   114464372.023          50.000    21981634.674    93013382.490          44.000  
C32  24274680.316   126404692.832          46.000    24274684.337   102714208.559          40.000  
C33  24021758.591   125087872.673          47.000    24021773.941   101646276.235          40.000  
> 2024  6 26 12 50 52.0000000  0 30                     
G10  20307639.836   106717442.142          50.000    20307643.463    83156498.457          46.000  
G12  21720737.468   114143490.945          45.000    21720738.558    88943105.513          41.000  
G23  20963512.961   110164122.976          45.000    20963515.766    85842240.140          45.000  
G24  24045565.151   126360519.915          37.000    24045571.137    98462874.546          36.000  
G25  20515791.867   107811463.686          46.000    20515797.246    84009078.489          44.000  
G28  21996296.279   115591530.847          44.000    21996299.531    90071432.560          44.000  
G31  24417740.161   128316120.511          37.000    24417746.504    99986609.914          30.000  
G32  21694995.532   114008127.853          48.000    21694999.731    88837599.046          44.000  
R 5  22506562.883   120310744.038          45.000                                                  
R 6  19671634.688   104971624.233          40.000                                                  
R 7  21737038.449   116360116.940          51.000                                                  
R 9  19688325.732   105134750.119          51.000                                                  
R10  22900944.729   122074984.920          39.000                                                  
R16  19981619.494   106738494.576          52.000                                                  
C 1  37081352.984   193092355.557          45.000    37081353.860   156903389.780          37.000  
C 2  37748704.633   196567367.300          41.000    37748704.437   159727190.383          35.000  
C 3  36793419.339   191592986.818          46.000    36793418.482   155685023.890          39.000  
C 4  38425428.763   200091269.206          42.000    38425427.906   162590655.074          33.000  
C 5  40179393.823   209224668.063          37.000    40179395.127   170012241.630          30.000  
C 6  36437422.282   189739338.616          46.000    36437418.887   154178787.143          40.000  
C 8  36257005.708   188799810.003          45.000    36257001.902   153415272.039          41.000  
C 9  37575728.524   195666775.691          44.000    37575726.022   158995295.510          38.000  
C13  35963227.016   187270040.215          48.000    35963228.982   152172217.319          41.000  
C14  25784814.641   134268419.624          37.000    25784813.068   109104143.331          34.000  
C16  36891463.631   192103801.420          48.000    36891463.702   156100141.806          39.000  
C23  22388049.233   116580528.414          51.000    22388043.229    94731238.621          44.000  
C24  25895062.742   134842605.541          39.000    25895065.941   109572714.852          34.000  
C25  21981906.712   114465789.954          50.000    21981906.998    93014534.689          44.000  
C32  24274179.751   126402085.221          46.000    24274183.539   102712089.669          40.000  
C33  24022173.867   125090034.295          47.000    24022189.092   101648032.715          40.000  
> 2024  6 26 12 50 53.0000000  0 30                     
G10  20307597.308   106717218.698          50.000    20307601.114    83156324.327          46.000  
G12  21720873.290   114144204.333          45.000    21720874.184    88943661.368          41.000  
G23  20963969.532   110166521.503          45.000    20963971.730    85844109.134          45.000  
G24  24046176.647   126363731.046          37.000    24046182.454    98465376.781          36.000  
G25  20515564.091   107810266.370          46.000    20515569.988    84008145.525          43.000  
G28  21995956.374   115589743.844          44.000    21995959.215    90070040.115          44.000  
G31  24417167.155   128313105.547          37.000    24417172.533    99984260.587          30.000  
G32  21694700.622   114006577.686          48.000    21694704.339    88836391.138          44.000  
R 5  22507052.173   120313359.264          45.000                                                  
R 6  19671496.204   104970884.783          40.000                                                  
R 7  21736459.814   116357018.585          51.000                                                  
R 9  19687944.782   105132715.541          51.000                                                  
R10  22900168.713   122070849.595          39.000                                                  
R16  19982039.434   106740737.581          52.000                                                  
C 1  37081364.474   193092415.564          45.000    37081365.564   156903438.565          36.000  
C 2  37748712.335   196567407.674          41.000    37748712.192   159727223.157          34.000  
C 3  36793430.740   191593046.753          45.000    36793430.347   155685072.611          38.000  
C 4  38425439.824   200091325.495          41.000    38425438.627   162590700.846          32.000  
C 5  40179396.485   209224682.393          37.000    40179397.807   170012253.369          31.000  
C 6  36437447.978   189739472.284          46.000    36437444.582   154178895.752          40.000  
C 8  36257199.730   188800819.090          45.000    36257195.227   153416092.000          40.000  
C 9  37575745.375   195666863.567          44.000    37575743.087   158995366.924          38.000  
C13  35963366.663   187270767.298          48.000    35963368.807   152172808.128          40.000  
C14  25785341.062   134271160.795          37.000    25785339.454   109106370.818          33.000  
C16  36891504.676   192104015.793          48.000    36891504.729   156100315.998          38.000  
C23  22387751.374   116578977.290          51.000    22387745.424    94729978.217          44.000  
C24  25895652.938   134845679.274          39.000    25895656.280   109575212.563          34.000  
C25  21982181.395   114467220.595          50.000    21982181.788    93015697.200          44.000  
C32  24273681.241   126399490.064          46.000    24273684.976   102709980.910          40.000  
C33  24022591.431   125092208.535          47.000    24022606.619   101649799.469          40.000  
> 2024  6 26 12 50 54.0000000  0 30                     
G10  20307552.492   106716983.056          50.000    20307556.298    83156140.717          46.000  
G12  21721006.915   114144905.563          46.000    21721008.488    88944207.781          41.000  
G23  20964423.709   110168907.708          45.000    20964425.585    85845968.506          45.000  
G24  24046784.873   126366929.352          37.000    24046792.145    98467868.951          36.000  
G25  20515334.010   107809056.863          46.000    20515338.530    84007203.057          43.000  
G28  21995613.986   115587944.326          44.000    21995617.828    90068637.909          44.000  
G31  24416590.825   128310077.910          37.000    24416596.936    99981901.375          30.000  
G32  21694403.263   114005014.782          48.000    21694407.034    88835173.281          44.000  
R 5  22507539.122   120315961.767          46.000                                                  
R 6  19671355.449   104970132.765          40.000                                                  
R 7  21735878.820   116353907.208          51.000                                                  
R 9  19687561.509   105130668.651          51.000                                                  
R10  22899390.660   122066701.468          39.000                                                  
R16  19982457.069   106742968.177          52.000                                                  
C 1  37081373.337   193092462.839          44.000    37081374.552   156903476.975          36.000  
C 2  37748717.642   196567435.295          41.000    37748717.553   159727245.649          33.000  
C 3  36793439.496   191593093.972          45.000    36793439.156   155685110.950          38.000  
C 4  38425448.312   200091369.062          42.000    38425446.972   162590736.236          33.000  
C 5  40179396.431   209224683.975          37.000    40179398.147   170012254.647          29.000  
C 6  36437471.172   189739593.218          46.000    36437467.544   154178994.023          40.000  
C 8  36257390.875   188801815.636          45.000    36257386.783   153416901.784          40.000  
C 9  37575759.670   195666938.753          44.000    37575757.597   158995428.011          38.000  
C13  35963503.825   187271481.854          48.000    35963505.987   152173388.763          40.000  
C14  25785864.678   134273889.367          36.000    25785863.392   109108588.011          33.000  
C16  36891543.362   192104217.449          47.000    36891543.755   156100479.880          39.000  
C23  22387451.068   116577413.851          50.000    22387445.314    94728707.771          44.000  
C24  25896240.722   134848740.311          39.000    25896244.117   109577699.872          34.000  
C25  21982453.647   114468638.907          49.000    21982454.147    93016849.694          44.000  
C32  24273180.247   126396882.261          45.000    24273184.232   102707861.835          40.000  
C33  24023006.546   125094370.364          47.000    24023021.788   101651556.152          40.000  
> 2024  6 26 12 50 55.0000000  0 30                     
G10  20307507.695   106716747.311          50.000    20307510.911    83155957.040          46.000  
G12  21721140.075   114145606.685          46.000    21721141.826    88944754.094          41.000  
G23  20964877.600   110171293.650          45.000    20964880.298    85847827.701          45.000  
G24  24047393.277   126370126.850          37.000    24047398.727    98470360.492          36.000  
G25  20515103.803   107807847.243          46.000    20515107.806    84006260.479          44.000  
G28  21995271.347   115586144.364          44.000    21995274.796    90067235.342          44.000  
G31  24416014.531   128307049.711          37.000    24416019.177    99979541.785          30.000  
G32  21694105.619   114003451.199          48.000    21694109.282    88833954.918          44.000  
R 5  22508025.731   120318563.838          45.000                                                  
R 6  19671214.266   104969380.442          40.000                                                  
R 7  21735297.202   116350795.114          51.000                                                  
R 9  19687178.130   105128621.704          51.000                                                  
R10  22898612.249   122062552.868          39.000                                                  
R16  19982874.596   106745198.648          52.000                                                  
C 1  37081382.254   193092509.355          44.000    37081383.433   156903514.770          37.000  
C 2  37748722.753   196567462.189          41.000    37748722.717   159727267.452          35.000  
C 3  36793448.519   191593140.412          46.000    36793448.180   155685148.694          38.000  
C 4  38425456.425   200091411.847          42.000    38425455.120   162590771.000          34.000  
C 5  40179396.324   209224684.824          37.000    40179398.111   170012255.290          30.000  
C 6  36437494.115   189739713.411          46.000    36437490.738   154179091.685          40.000  
C 8  36257581.966   188802811.600          45.000    36257578.142   153417711.098          40.000  
C 9  37575773.929   195667013.201          44.000    37575771.874   158995488.535          38.000  
C13  35963641.059   187272195.828          48.000    35963643.275   152173968.928          41.000  
C14  25786388.794   134276617.365          37.000    25786387.222   109110804.693          33.000  
C16  36891581.906   192104418.342          48.000    36891582.460   156100643.102          39.000  
C23  22387150.868   116575850.069          51.000    22387145.007    94727437.075          44.000  
C24  25896828.934   134851800.601          39.000    25896831.829   109580186.603          34.000  
C25  21982726.132   114470056.830          50.000    21982726.257    93018001.866          44.000  
C32  24272679.700   126394273.766          46.000    24272683.417   102705742.245          40.000  
C33  24023421.750   125096531.723          47.000    24023436.939   101653312.425          40.000  
> 2024  6 26 12 50 56.0000000  0 30                     
G10  20307465.488   106716525.590          50.000    20307469.008    83155784.252          46.000  
G12  21721276.005   114146321.872          46.000    21721278.095    88945311.382          42.000  
G23  20965334.100   110173693.494          45.000    20965336.852    85849697.701          46.000  
G24  24048004.826   126373337.726          37.000    24048013.243    98472862.439          36.000  
G25  20514876.294   107806651.678          46.000    20514881.637    84005328.895          44.000  
G28  21994931.461   115584358.113          44.000    21994934.320    90065843.451          44.000  
G31  24415441.186   128304035.109          37.000    24415444.938    99977192.728          31.000  
G32  21693810.816   114001901.112          48.000    21693814.140    88832747.047          44.000  
R 5  22508514.949   120321179.897          45.000                                                  
R 6  19671075.853   104968642.163          40.000                                                  
R 7  21734718.478   116347696.687          51.000                                                  
R 9  19686797.484   105126589.049          51.000                                                  
R10  22897836.537   122058418.076          39.000                                                  
R16  19983294.876   106747443.398          52.000                                                  
C 1  37081394.065   193092569.138          44.000    37081394.995   156903563.333          37.000  
C 2  37748730.865   196567502.316          41.000    37748730.543   159727300.088          35.000  
C 3  36793459.991   191593200.091          46.000    36793459.866   155685197.195          39.000  
C 4  38425467.146   200091467.912          41.000    38425465.949   162590816.593          34.000  
C 5  40179398.897   209224698.909          37.000    40179401.131   170012266.775          30.000  
C 6  36437519.829   189739846.874          46.000    36437516.541   154179200.152          41.000  
C 8  36257775.827   188803821.036          46.000    36257771.985   153418531.329          41.000  
C 9  37575790.762   195667100.934          44.000    37575788.850   158995559.820          39.000  
C13  35963780.795   187272923.245          48.000    35963783.136   152174560.007          41.000  
C14  25786914.769   134279358.821          37.000    25786913.786   109113032.390          33.000  
C16  36891623.040   192104632.493          48.000    36891623.719   156100817.128          39.000  
C23  22386853.206   116574299.976          51.000    22386847.148    94726177.498          45.000  
C24  25897419.023   134854874.212          38.000    25897422.114   109582684.190          34.000  
C25  21983001.047   114471488.395          50.000    21983001.190    93019165.137          44.000  
C32  24272181.351   126391678.656          46.000    24272185.086   102703633.491          41.000  
C33  24023839.439   125098706.637          47.000    24023854.395   101655079.714          41.000  
> 2024  6 26 12 50 57.0000000  0 30                     
G10  20307420.923   106716291.876          50.000    20307424.407    83155602.123          46.000  
G12  21721409.915   114147025.080          46.000    21721411.952    88945859.316          42.000  
G23  20965788.509   110176081.190          45.000    20965790.671    85851558.228          46.000  
G24  24048614.071   126376535.870          37.000    24048619.771    98475354.488          37.000  
G25  20514646.713   107805444.100          46.000    20514651.502    84004387.937          44.000  
G28  21994589.108   115582559.513          44.000    21994592.646    90064441.963          45.000  
G31  24414865.088   128301008.020          37.000    24414868.877    99974833.967          31.000  
G32  21693513.333   114000338.456          48.000    21693516.835    88831529.423          45.000  
R 5  22509002.023   120323783.460          45.000                                                  
R 6  19670934.991   104967891.542          40.000                                                  
R 7  21734137.556   116344585.397          51.000                                                  
R 9  19686414.640   105124544.243          51.000                                                  
R10  22897058.341   122054270.717          39.000                                                  
R16  19983712.868   106749675.954          52.000                                                  
C 1  37081403.304   193092616.340          44.000    37081404.036   156903601.700          38.000  
C 2  37748735.940   196567529.917          41.000    37748735.547   159727322.508          35.000  
C 3  36793468.962   191593247.249          45.000    36793468.765   155685235.505          39.000  
C 4  38425475.437   200091511.418          41.000    38425474.312   162590851.895          33.000  
C 5  40179399.058   209224700.441          36.000    40179401.470   170012267.983          32.000  
C 6  36437543.041   189739967.817          45.000    36437539.771   154179298.409          40.000  
C 8  36257967.133   188804818.099          45.000    36257963.577   153419341.527          41.000  
C 9  37575805.182   195667176.158          44.000    37575803.199   158995620.922          39.000  
C13  35963917.886   187273638.359          48.000    35963920.406   152175141.086          42.000  
C14  25787438.868   134282087.863          37.000    25787437.831   109115249.923          33.000  
C16  36891661.744   192104834.109          48.000    36891662.370   156100980.955          39.000  
C23  22386553.042   116572737.756          50.000    22386547.270    94724908.080          45.000  
C24  25898006.610   134857935.304          38.000    25898009.987   109585171.578          34.000  
C25  21983273.531   114472907.798          49.000    21983273.960    93020318.513          44.000  
C32  24271680.339   126389071.068          46.000    24271684.288   102701514.629          41.000  
C33  24024254.483   125100869.307          46.000    24024269.743   101656837.056          41.000  
> 2024  6 26 12 50 58.0000000  0 30                     
G10  20307376.482   106716058.766          50.000    20307380.163    83155420.484          46.000  
G12  21721543.718   114147728.878          46.000    21721546.434    88946407.753          41.000  
G23  20966243.008   110178469.344          45.000    20966245.778    85853419.136          45.000  
G24  24049222.297   126379733.929          37.000    24049228.193    98477846.519          36.000  
G25  20514416.828   107804237.132          46.000    20514422.707    84003447.422          44.000  
G28  21994246.916   115580761.201          44.000    21994249.900    90063040.660          44.000  
G31  24414288.687   128297981.113          37.000    24414292.190    99972475.299          30.000  
G32  21693215.903   113998775.857          48.000    21693220.602    88830311.776          44.000  
R 5  22509489.311   120326387.343          45.000                                                  
R 6  19670794.630   104967141.320          40.000                                                  
R 7  21733556.080   116341474.074          51.000                                                  
R 9  19686031.796   105122500.090          51.000                                                  
R10  22896280.056   122050123.575          39.000                                                  
R16  19984130.896   106751909.130          52.000                                                  
C 1  37081412.524   193092663.499          44.000    37081413.310   156903640.013          38.000  
C 2  37748741.390   196567557.450          41.000    37748740.979   159727344.891          35.000  
C 3  36793478.128   191593294.332          46.000    36793477.825   155685273.778          39.000  
C 4  38425483.639   200091554.854          42.000    38425482.674   162590887.156          33.000  
C 5  40179399.934   209224701.927          36.000    40179401.542   170012269.190          31.000  
C 6  36437566.127   189740088.693          46.000    36437562.965   154179396.654          40.000  
C 8  36258158.814   188805815.281          46.000    36258154.883   153420151.810          41.000  
C 9  37575819.620   195667251.330          44.000    37575817.601   158995682.020          38.000  
C13  35964055.353   187274353.583          48.000    35964057.908   152175722.286          41.000  
C14  25787963.198   134284817.043          37.000    25787961.894   109117467.643          33.000  
C16  36891700.681   192105035.667          48.000    36891700.806   156101144.723          38.000  
C23  22386253.200   116571175.898          51.000    22386247.321    94723638.938          44.000  
C24  25898594.555   134860996.379          39.000    25898597.807   109587658.898          33.000  
C25  21983546.320   114474327.520          50.000    21983546.552    93021472.161          44.000  
C32  24271179.864   126386463.524          46.000    24271183.545   102699395.762          40.000  
C33  24024670.045   125103032.224          47.000    24024685.287   101658594.610          40.000  
> 2024  6 26 12 50 59.0000000  0 30                     
G10  20307334.722   106715839.246          50.000    20307338.028    83155249.441          46.000  
G12  21721680.309   114148446.316          46.000    21721682.132    88946966.839          42.000  
G23  20966700.062   110180870.967          45.000    20966702.563    85855290.537          45.000  
G24  24049832.685   126382944.911          37.000    24049841.119    98480348.582          36.000  
G25  20514189.838   107803043.762          46.000    20514195.074    84002517.548          44.000  
G28  21993907.530   115578976.152          44.000    21993909.960    90061649.720          44.000  
G31  24413715.521   128294967.352          37.000    24413718.147    99970126.962          31.000  
G32  21692921.207   113997226.309          48.000    21692924.941    88829104.351          44.000  
R 5  22509979.048   120329004.760          46.000                                                  
R 6  19670656.413   104966404.743          40.000                                                  
R 7  21732977.463   116338375.978          51.000                                                  
R 9  19685651.561   105120469.830          51.000                                                  
R10  22895505.023   122045989.813          39.000                                                  
R16  19984551.551   106754156.132          52.000                                                  
C 1  37081423.782   193092723.471          45.000    37081425.086   156903688.760          37.000  
C 2  37748749.342   196567597.828          41.000    37748748.627   159727377.684          34.000  
C 3  36793489.743   191593354.244          46.000    36793489.386   155685322.482          38.000  
C 4  38425494.486   200091611.117          42.000    38425493.431   162590932.932          33.000  
C 5  40179402.668   209224716.219          36.000    40179404.419   170012280.813          27.000  
C 6  36437592.055   189740222.430          46.000    36437588.607   154179505.322          40.000  
C 8  36258352.782   188806825.511          46.000    36258349.012   153420972.704          40.000  
C 9  37575836.489   195667339.392          44.000    37575834.755   158995753.565          38.000  
C13  35964195.124   187275081.823          48.000    35964197.697   152176314.029          41.000  
C14  25788490.067   134287559.237          36.000    25788488.369   109119695.900          33.000  
C16  36891741.708   192105250.054          48.000    36891741.816   156101318.933          38.000  
C23  22385955.806   116569627.304          51.000    22385950.034    94722380.569          44.000  
C24  25899185.001   134864070.289          39.000    25899188.163   109590156.744          34.000  
C25  21983821.413   114475760.456          50.000    21983821.717    93022636.538          44.000  
C32  24270681.675   126383868.893          46.000    24270685.249   102697287.417          40.000  
C33  24025087.876   125105208.266          47.000    24025103.100   101660362.809          40.000  
> 2024  6 26 12 51  0.0000000  0 30                     
G10  20307290.890   106715607.844          50.000    20307294.160    83155069.119          46.000  
G12  21721814.702   114149151.898          46.000    21721815.917    88947516.565          42.000  
G23  20967154.864   110183260.568          45.000    20967157.044    85857152.559          46.000  
G24  24050441.643   126386143.322          37.000    24050449.398    98482840.851          36.000  
G25  20513960.418   107801838.513          46.000    20513964.438    84001578.389          44.000  
G28  21993565.445   115577178.870          44.000    21993568.215    90060249.252          44.000  
G31  24413139.566   128291941.275          37.000    24413141.603    99967768.985          31.000  
G32  21692624.063   113995664.332          48.000    21692627.440    88827887.228          44.000  
R 5  22510466.246   120331609.789          46.000                                                  
R 6  19670516.141   104965655.889          40.000                                                  
R 7  21732396.577   116335265.164          51.000                                                  
R 9  19685269.146   105118427.558          51.000                                                  
R10  22894727.488   122041843.597          39.000                                                  
R16  19984969.954   106756391.042          52.000                                                  
C 1  37081432.734   193092771.025          45.000    37081434.306   156903727.401          38.000  
C 2  37748754.524   196567625.768          41.000    37748753.988   159727400.393          35.000  
C 3  36793498.821   191593401.719          46.000    36793498.320   155685361.058          39.000  
C 4  38425502.973   200091654.934          41.000    38425501.866   162590968.512          34.000  
C 5  40179402.650   209224718.109          37.000    40179404.812   170012282.363          31.000  
C 6  36437615.446   189740343.743          46.000    36437611.765   154179603.874          40.000  
C 8  36258544.570   188807823.516          45.000    36258540.764   153421783.677          41.000  
C 9  37575850.980   195667415.052          44.000    37575849.140   158995815.048          38.000  
C13  35964332.769   187275797.821          48.000    35964335.038   152176895.833          41.000  
C14  25789014.290   134290289.140          36.000    25789012.718   109121914.194          34.000  
C16  36891780.448   192105452.019          48.000    36891780.734   156101483.053          39.000  
C23  22385656.017   116568066.694          51.000    22385650.335    94721112.450          44.000  
C24  25899772.945   134867131.839          39.000    25899775.965   109592644.482          34.000  
C25  21984094.148   114477181.362          50.000    21984094.631    93023791.136          44.000  
C32  24270180.735   126381261.924          46.000    24270184.791   102695169.060          40.000  
C33  24025503.331   125107372.186          47.000    24025518.662   101662121.185          41.000  
> 2024  6 26 12 51  1.0000000  0 30                     
G10  20307245.395   106715368.992          50.000    20307248.772    83154883.007          46.000  
G12  21721947.540   114149849.997          46.000    21721948.362    88948060.599          42.000  
G23  20967608.112   110185642.559          45.000    20967609.970    85859008.657          46.000  
G24  24051048.672   126389333.616          37.000    24051054.515    98485326.767          36.000  
G25  20513729.568   107800625.812          46.000    20513736.036    84000633.424          44.000  
G28  21993221.860   115575373.832          44.000    21993224.951    90058842.722          44.000  
G31  24412561.986   128288907.238          37.000    24412564.845    99965404.731          32.000  
G32  21692325.078   113994094.332          48.000    21692327.794    88826663.867          44.000  
R 5  22510952.016   120334206.940          45.000                                                  
R 6  19670374.208   104964899.305          40.000                                                  
R 7  21731813.796   116332146.120          51.000                                                  
R 9  19684885.284   105116377.758          51.000                                                  
R10  22893948.327   122037689.386          39.000                                                  
R16  19985386.892   106758618.344          52.000                                                  
C 1  37081440.257   193092810.545          45.000    37081441.901   156903759.516          37.000  
C 2  37748758.544   196567645.640          41.000    37748757.740   159727416.524          35.000  
C 3  36793506.683   191593441.160          46.000    36793505.825   155685393.076          38.000  
C 4  38425510.085   200091690.711          42.000    38425508.781   162590997.576          34.000  
C 5  40179401.881   209224711.950          37.000    40179403.400   170012277.347          30.000  
C 6  36437637.068   189740457.006          46.000    36437633.261   154179695.920          41.000  
C 8  36258734.679   188808813.697          45.000    36258730.962   153422588.296          40.000  
C 9  37575863.971   195667482.695          44.000    37575862.095   158995870.026          39.000  
C13  35964468.770   187276505.986          48.000    35964470.915   152177471.277          41.000  
C14  25789537.298   134293011.184          36.000    25789535.404   109124126.072          34.000  
C16  36891817.580   192105645.950          48.000    36891818.152   156101640.642          39.000  
C23  22385355.013   116566498.471          51.000    22385349.242    94719838.146          45.000  
C24  25900359.335   134870185.371          39.000    25900362.373   109595125.713          34.000  
C25  21984365.829   114478594.594          50.000    21984366.008    93024939.503          44.000  
C32  24269678.741   126378647.015          46.000    24269682.529   102693044.239          41.000  
C33  24025917.410   125109528.363          47.000    24025932.795   101663873.248          41.000  
> 2024  6 26 12 51  2.0000000  0 30                     
G10  20307203.028   106715146.399          50.000    20307206.030    83154709.546          46.000  
G12  21722083.434   114150564.389          46.000    21722084.131    88948617.228          41.000  
G23  20968064.237   110188040.670          45.000    20968066.792    85860877.312          45.000  
G24  24051658.881   126392539.430          37.000    24051668.173    98487824.838          35.000  
G25  20513501.863   107799429.372          46.000    20513507.456    83999701.129          44.000  
G28  21992881.491   115573584.708          44.000    21992884.725    90057448.588          44.000  
G31  24411988.033   128285889.025          37.000    24411990.016    99963052.905          31.000  
G32  21692029.328   113992540.039          48.000    21692032.044    88825452.730          44.000  
R 5  22511440.930   120336820.336          45.000                                                  
R 6  19670235.562   104964159.006          40.000                                                  
R 7  21731233.804   116329043.026          51.000                                                  
R 9  19684504.459   105114344.524          51.000                                                  
R10  22893171.579   122033551.299          39.000                                                  
R16  19985806.939   106760862.161          52.000                                                  
C 1  37081450.746   193092865.501          45.000    37081452.104   156903804.173          37.000  
C 2  37748765.227   196567681.010          41.000    37748764.405   159727445.289          34.000  
C 3  36793517.262   191593496.050          46.000    36793516.529   155685437.690          38.000  
C 4  38425520.003   200091741.952          41.000    38425518.662   162591039.240          32.000  
C 5  40179403.543   209224721.270          36.000    40179405.366   170012284.896          31.000  
C 6  36437661.816   189740585.768          46.000    36437658.385   154179800.575          40.000  
C 8  36258928.093   188809819.489          45.000    36258924.108   153423405.566          40.000  
C 9  37575880.250   195667565.834          44.000    37575878.016   158995937.590          38.000  
C13  35964607.773   187277229.791          48.000    35964609.989   152178059.438          41.000  
C14  25790062.469   134295748.833          37.000    25790061.057   109126350.632          32.000  
C16  36891857.964   192105855.339          47.000    36891858.286   156101810.783          39.000  
C23  22385056.940   116564946.131          50.000    22385051.043    94718576.745          44.000  
C24  25900948.441   134873254.396          39.000    25900951.675   109597619.581          34.000  
C25  21984640.190   114480023.673          49.000    21984640.458    93026100.747          44.000  
C32  24269179.587   126376047.644          46.000    24269183.340   102690932.012          40.000  
C33  24026334.508   125111700.302          47.000    24026349.858   101665638.120          40.000  
> 2024  6 26 12 51  3.0000000  0 30                     
G10  20307160.946   106714925.538          50.000    20307164.359    83154537.445          46.000  
G12  21722219.703   114151280.520          45.000    21722221.490    88949175.290          42.000  
G23  20968520.915   110190440.374          45.000    20968522.059    85862747.183          46.000  
G24  24052269.090   126395746.357          37.000    24052275.291    98490323.701          36.000  
G25  20513274.730   107798234.667          46.000    20513279.179    83998770.202          44.000  
G28  21992541.193   115571796.980          44.000    21992544.695    90056055.565          45.000  
G31  24411414.115   128282872.093          37.000    24411416.349    99960702.096          32.000  
G32  21691733.703   113990986.933          48.000    21691737.723    88824242.503          45.000  
R 5  22511930.220   120339435.201          46.000                                                  
R 6  19670097.202   104963420.304          40.000                                                  
R 7  21730654.579   116325941.086          51.000                                                  
R 9  19684124.135   105112313.107          51.000                                                  
R10  22892395.420   122029414.507          39.000                                                  
R16  19986227.379   106763107.725          52.000                                                  
C 1  37081461.610   193092921.523          45.000    37081463.308   156903849.685          37.000  
C 2  37748772.321   196567717.424          41.000    37748771.696   159727474.899          35.000  
C 3  36793527.876   191593552.001          46.000    36793526.929   155685483.155          39.000  
C 4  38425530.009   200091794.225          41.000    38425528.741   162591081.732          33.000  
C 5  40179405.741   209224731.621          36.000    40179407.492   170012293.312          31.000  
C 6  36437686.708   189740715.589          46.000    36437683.366   154179906.055          41.000  
C 8  36259121.454   188810826.555          46.000    36259117.630   153424223.894          41.000  
C 9  37575896.207   195667650.058          44.000    37575894.295   158996006.012          39.000  
C13  35964746.884   187277954.824          48.000    35964749.314   152178648.574          42.000  
C14  25790588.551   134298487.774          37.000    25790587.050   109128576.222          34.000  
C16  36891898.259   192106065.792          48.000    36891898.706   156101981.807          39.000  
C23  22384759.010   116563395.269          51.000    22384753.256    94717316.546          45.000  
C24  25901538.369   134876324.494          39.000    25901541.281   109600114.291          35.000  
C25  21984914.837   114481454.189          50.000    21984915.194    93027263.161          45.000  
C32  24268680.416   126373449.434          46.000    24268684.365   102688820.788          41.000  
C33  24026751.786   125113873.588          47.000    24026767.189   101667404.107          41.000  
> 2024  6 26 12 51  4.0000000  0 30                     
G10  20307116.720   106714692.511          50.000    20307119.758    83154355.876          46.000  
G12  21722353.632   114151984.515          45.000    21722356.276    88949723.823          41.000  
G23  20968975.146   110192827.777          45.000    20968977.361    85864607.534          45.000  
G24  24052876.780   126398940.387          37.000    24052881.569    98492812.597          36.000  
G25  20513045.059   107797027.817          46.000    20513049.294    83997829.794          44.000  
G28  21992198.662   115569996.764          44.000    21992201.181    90054652.817          44.000  
G31  24410837.714   128279842.542          36.000    24410839.662    99958341.400          31.000  
G32  21691435.898   113989421.108          48.000    21691440.133    88823022.378          44.000  
R 5  22512416.972   120342037.385          45.000                                                  
R 6  19669956.340   104962669.054          40.000                                                  
R 7  21730072.603   116322826.132          51.000                                                  
R 9  19683741.327   105110269.371          51.000                                                  
R10  22891617.063   122025265.013          39.000                                                  
R16  19986645.425   106765340.925          52.000                                                  
C 1  37081469.919   193092964.828          45.000    37081471.688   156903884.882          36.000  
C 2  37748776.556   196567741.105          41.000    37748776.199   159727494.154          35.000  
C 3  36793536.185   191593595.260          46.000    36793535.274   155685518.302          38.000  
C 4  38425537.514   200091833.823          42.000    38425536.281   162591113.866          32.000  
C 5  40179405.384   209224729.272          37.000    40179407.117   170012291.398          30.000  
C 6  36437709.205   189740832.737          46.000    36437705.792   154180001.250          39.000  
C 8  36259312.367   188811821.130          45.000    36259308.560   153425032.065          40.000  
C 9  37575910.091   195667721.627          44.000    37575908.054   158996064.175          38.000  
C13  35964883.743   187278667.370          48.000    35964886.048   152179227.577          40.000  
C14  25791112.310   134301214.141          37.000    25791110.559   109130791.640          32.000  
C16  36891936.266   192106263.564          47.000    36891936.892   156102142.494          38.000  
C23  22384458.703   116561832.141          51.000    22384452.967    94716046.377          44.000  
C24  25902125.438   134879381.975          38.000    25902128.440   109602598.734          33.000  
C25  21985187.250   114482872.409          50.000    21985187.500    93028415.573          44.000  
C32  24268179.154   126370838.616          46.000    24268183.211   102686699.282          40.000  
C33  24027166.865   125116034.481          47.000    24027182.090   101669160.000          40.000  
> 2024  6 26 12 51  5.0000000  0 30                     
G10  20307074.335   106714470.106          50.000    20307077.659    83154182.574          47.000  
G12  21722489.615   114152699.141          45.000    21722491.652    88950280.688          43.000  
G23  20969431.485   110195225.655          45.000    20969433.969    85866475.999          47.000  
G24  24053486.596   126402144.399          37.000    24053492.636    98495309.182          37.000  
G25  20512817.283   107795831.580          46.000    20512823.001    83996897.657          45.000  
G28  21991858.203   115568206.832          44.000    21991860.472    90053258.051          45.000  
G31  24410262.832   128276823.144          36.000    24410265.781    99955988.666          33.000  
G32  21691139.862   113987865.360          48.000    21691143.239    88821810.127          45.000  
R 5  22512905.618   120344650.059          45.000                                                  
R 6  19669817.480   104961928.413          40.000                                                  
R 7  21729492.467   116319721.352          51.000                                                  
R 9  19683360.609   105108236.490          51.000                                                  
R10  22890840.064   122021125.876          39.000                                                  
R16  19987065.544   106767584.924          52.000                                                  
C 1  37081480.033   193093017.991          45.000    37081481.641   156903928.097          41.000  
C 2  37748783.168   196567774.693          41.000    37748782.685   159727521.414          39.000  
C 3  36793546.477   191593648.356          46.000    36793545.512   155685561.468          43.000  
C 4  38425546.860   200091883.281          42.000    38425545.806   162591154.072          37.000  
C 5  40179406.545   209224736.780          36.000    40179408.511   170012297.520          35.000  
C 6  36437733.542   189740959.757          46.000    36437730.147   154180104.460          43.000  
C 8  36259505.352   188812825.753          46.000    36259501.278   153425848.416          44.000  
C 9  37575925.655   195667803.082          44.000    37575923.511   158996130.359          42.000  
C13  35965022.603   187279389.981          48.000    35965024.872   152179814.769          44.000  
C14  25791637.570   134303950.561          37.000    25791636.051   109133015.198          34.000  
C16  36891976.061   192106471.199          48.000    36891976.543   156102311.225          42.000  
C23  22384160.648   116560279.306          51.000    22384154.698    94714784.565          49.000  
C24  25902714.383   134882449.325          38.000    25902717.438   109605091.235          36.000  
C25  21985461.522   114484300.860          50.000    21985461.915    93029576.307          48.000  
C32  24267679.697   126368237.751          46.000    24267683.664   102684585.862          42.000  
C33  24027583.964   125118205.549          47.000    24027599.117   101670924.168          44.000  
> 2024  6 26 12 51  6.0000000  0 30                     
G10  20307030.895   106714242.073          50.000    20307034.076    83154004.890          50.000  
G12  21722624.526   114153408.154          46.000    21722626.367    88950833.195          45.000  
G23  20969886.805   110197617.765          45.000    20969889.271    85868339.969          49.000  
G24  24054095.090   126405342.059          37.000    24054101.040    98497800.874          39.000  
G25  20512588.649   107794629.724          46.000    20512593.563    83995961.162          48.000  
G28  21991516.190   115566410.941          44.000    21991518.995    90051858.649          47.000  
G31  24409687.199   128273797.716          36.000    24409688.218    99953631.153          35.000  
G32  21690842.539   113986303.421          48.000    21690846.595    88820593.009          47.000  
R 5  22513393.496   120347256.715          45.000                                                  
R 6  19669677.655   104961181.841          40.000                                                  
R 7  21728911.510   116316610.215          51.000                                                  
R 9  19682978.856   105106197.979          51.000                                                  
R10  22890062.601   122016980.627          39.000                                                  
R16  19987484.608   106769823.213          52.000                                                  
C 1  37081489.218   193093064.934          45.000    37081490.576   156903966.252          41.000  
C 2  37748788.814   196567802.049          41.000    37748788.278   159727543.624          39.000  
C 3  36793555.394   191593695.241          46.000    36793554.501   155685599.564          42.000  
C 4  38425555.258   200091926.488          42.000    38425554.097   162591189.190          37.000  
C 5  40179406.670   209224738.050          37.000    40179408.833   170012298.583          35.000  
C 6  36437756.611   189741080.566          46.000    36437753.288   154180202.623          44.000  
C 8  36259697.105   188813824.360          45.000    36259692.995   153426659.864          44.000  
C 9  37575940.093   195667878.338          44.000    37575937.985   158996191.532          42.000  
C13  35965160.194   187280106.583          48.000    35965162.410   152180397.063          45.000  
C14  25792161.758   134306680.935          37.000    25792160.221   109135233.834          37.000  
C16  36892014.675   192106672.615          47.000    36892015.212   156102474.884          43.000  
C23  22383861.270   116558720.668          50.000    22383855.445    94713518.050          48.000  
C24  25903302.417   134885510.485          38.000    25903305.437   109607578.676          38.000  
C25  21985734.739   114485723.467          50.000    21985735.186    93030732.296          48.000  
C32  24267178.882   126365630.765          46.000    24267183.064   102682467.472          44.000  
C33  24027999.544   125120370.687          47.000    24028014.983   101672683.513          44.000  
> 2024  6 26 12 51  7.0000000  0 30                     
G10  20306987.724   106714015.275          50.000    20306991.584    83153828.146          49.000  
G12  21722759.759   114154118.434          45.000    21722761.117    88951386.626          44.000  
G23  20970342.233   110200010.969          45.000    20970344.717    85870204.799          48.000  
G24  24054703.191   126408540.238          37.000    24054708.748    98500292.975          39.000  
G25  20512360.157   107793429.109          46.000    20512365.161    83995025.602          47.000  
G28  21991174.481   115564615.954          44.000    21991177.912    90050459.971          47.000  
G31  24409110.977   128270773.030          36.000    24409113.925    99951274.257          34.000  
G32  21690545.484   113984742.162          48.000    21690549.594    88819376.453          47.000  
R 5  22513881.320   120349864.317          45.000                                                  
R 6  19669538.044   104960436.378          40.000                                                  
R 7  21728330.141   116313499.732          51.000                                                  
R 9  19682597.352   105104160.759          51.000                                                  
R10  22889285.549   122012836.262          39.000                                                  
R16  19987903.708   106772062.739          52.000                                                  
C 1  37081498.528   193093112.447          45.000    37081499.725   156904004.853          41.000  
C 2  37748793.907   196567829.970          41.000    37748793.228   159727566.330          38.000  
C 3  36793564.418   191593742.696          46.000    36793563.828   155685638.113          42.000  
C 4  38425563.478   200091970.279          42.000    38425562.602   162591224.776          37.000  
C 5  40179406.885   209224739.935          36.000    40179408.940   170012300.081          35.000  
C 6  36437780.055   189741201.971          46.000    36437776.535   154180301.272          44.000  
C 8  36259889.089   188814823.721          46.000    36259885.105   153427471.919          44.000  
C 9  37575954.567   195667954.196          44.000    37575952.566   158996253.149          42.000  
C13  35965297.911   187280823.937          48.000    35965300.234   152180979.959          45.000  
C14  25792686.392   134309412.028          37.000    25792684.802   109137453.092          37.000  
C16  36892053.558   192106874.600          48.000    36892053.898   156102639.014          43.000  
C23  22383562.322   116557163.027          51.000    22383556.264    94712252.337          48.000  
C24  25903890.290   134888572.258          39.000    25903893.077   109610066.600          37.000  
C25  21986008.296   114487147.025          50.000    21986008.546    93031889.056          48.000  
C32  24266678.496   126363024.433          46.000    24266682.409   102680349.614          44.000  
C33  24028415.642   125122536.683          47.000    24028430.884   101674443.574          44.000  
> 2024  6 26 12 51  8.0000000  0 30                     
G10  20306947.161   106713802.117          50.000    20306950.664    83153662.054          49.000  
G12  21722897.672   114154842.357          45.000    21722899.245    88951950.730          44.000  
G23  20970800.091   110202417.657          45.000    20970802.718    85872080.161          48.000  
G24  24055314.508   126411751.417          37.000    24055321.244    98502795.194          39.000  
G25  20512134.329   107792242.128          46.000    20512139.368    83994100.690          47.000  
G28  21990835.755   115562834.262          44.000    21990838.472    90049071.661          47.000  
G31  24408538.364   128267761.514          37.000    24408542.117    99948927.624          34.000  
G32  21690250.967   113983193.983          48.000    21690254.970    88818170.084          47.000  
R 5  22514371.861   120352485.492          46.000                                                  
R 6  19669400.775   104959704.532          40.000                                                  
R 7  21727751.613   116310402.542          51.000                                                  
R 9  19682218.564   105102137.455          51.000                                                  
R10  22888510.837   122008705.301          39.000                                                  
R16  19988325.578   106774316.110          52.000                                                  
C 1  37081510.107   193093172.821          45.000    37081511.286   156904053.907          41.000  
C 2  37748801.591   196567870.748          41.000    37748801.215   159727599.490          39.000  
C 3  36793576.015   191593803.003          46.000    36793575.461   155685687.105          43.000  
C 4  38425574.450   200092026.916          41.000    38425573.771   162591270.804          37.000  
C 5  40179409.690   209224754.692          37.000    40179411.924   170012312.049          35.000  
C 6  36437805.930   189741336.226          46.000    36437802.463   154180410.377          44.000  
C 8  36260083.451   188815836.105          46.000    36260079.430   153428294.564          44.000  
C 9  37575971.525   195668042.941          44.000    37575969.613   158996325.267          42.000  
C13  35965438.165   187281554.328          48.000    35965440.452   152181573.464          45.000  
C14  25793213.225   134312156.153          37.000    25793212.045   109139682.940          36.000  
C16  36892094.890   192107089.444          48.000    36892095.211   156102813.599          43.000  
C23  22383265.696   116555618.675          51.000    22383259.745    94710997.429          49.000  
C24  25904480.557   134891646.932          39.000    25904483.559   109612565.016          38.000  
C25  21986284.229   114488583.839          50.000    21986284.462    93033056.576          48.000  
C32  24266180.522   126360431.053          46.000    24266184.400   102678242.278          44.000  
C33  24028834.099   125124715.849          47.000    24028849.430   101676214.325          44.000  
> 2024  6 26 12 51  9.0000000  0 30                     
G10  20306904.329   106713576.945          50.000    20306907.742    83153486.604          46.000  
G12  21723033.262   114155554.301          46.000    21723035.335    88952505.492          41.000  
G23  20971255.912   110204812.205          45.000    20971257.681    85873946.033          45.000  
G24  24055923.019   126414949.880          37.000    24055930.596    98505287.502          35.000  
G25  20511906.070   107791043.141          46.000    20511910.662    83993166.420          44.000  
G28  21990494.350   115561040.255          44.000    21990497.602    90047673.708          44.000  
G31  24407962.785   128264737.556          36.000    24407967.431    99946571.231          31.000  
G32  21689953.895   113981633.249          48.000    21689957.951    88816953.935          44.000  
R 5  22514860.096   120355094.156          46.000                                                  
R 6  19669261.289   104958960.324          40.000                                                  
R 7  21727170.781   116307292.508          51.000                                                  
R 9  19681837.436   105100101.976          51.000                                                  
R10  22887733.195   122004561.791          39.000                                                  
R16  19988745.178   106776557.278          52.000                                                  
C 1  37081519.309   193093220.642          44.000    37081520.113   156904092.766          36.000  
C 2  37748806.987   196567898.983          41.000    37748806.773   159727622.430          35.000  
C 3  36793585.039   191593850.752          45.000    36793584.610   155685725.933          38.000  
C 4  38425582.919   200092070.987          41.000    38425582.330   162591306.617          31.000  
C 5  40179410.441   209224756.838          36.000    40179412.656   170012313.847          31.000  
C 6  36437829.177   189741457.954          46.000    36437825.925   154180509.281          40.000  
C 8  36260275.328   188816836.163          46.000    36260271.540   153429107.205          41.000  
C 9  37575986.410   195668119.172          44.000    37575984.105   158996387.203          39.000  
C13  35965576.024   187282272.376          48.000    35965578.508   152182156.939          41.000  
C14  25793737.841   134314887.926          36.000    25793736.447   109141902.691          32.000  
C16  36892133.844   192107291.752          47.000    36892133.987   156102977.974          39.000  
C23  22382966.747   116554062.194          50.000    22382960.993    94709732.656          45.000  
C24  25905068.734   134894709.104          39.000    25905071.664   109615053.293          34.000  
C25  21986557.733   114490008.476          50.000    21986558.126    93034214.217          44.000  
C32  24265679.975   126357825.218          46.000    24265684.139   102676124.840          41.000  
C33  24029250.125   125126882.764          46.000    24029265.511   101677975.118          40.000  
> 2024  6 26 12 51 10.0000000  0 30                     
G10  20306861.461   106713352.234          50.000    20306864.999    83153311.504          48.000  
G12  21723168.513   114156266.720          46.000    21723170.264    88953060.615          43.000  
G23  20971711.519   110207207.058          45.000    20971713.842    85875812.153          47.000  
G24  24056531.746   126418148.106          37.000    24056537.482    98507779.630          38.000  
G25  20511678.097   107789844.630          46.000    20511682.993    83992232.508          46.000  
G28  21990152.819   115559246.359          44.000    21990156.304    90046275.871          46.000  
G31  24407386.884   128261713.595          36.000    24407391.405    99944214.903          33.000  
G32  21689656.858   113980072.425          48.000    21689660.771    88815737.696          46.000  
R 5  22515348.046   120357702.997          46.000                                                  
R 6  19669121.893   104958216.374          40.000                                                  
R 7  21726589.412   116304182.303          51.000                                                  
R 9  19681456.236   105098067.028          51.000                                                  
R10  22886955.750   122000418.334          39.000                                                  
R16  19989164.796   106778798.901          52.000                                                  
C 1  37081528.619   193093268.254          45.000    37081529.316   156904131.454          41.000  
C 2  37748812.491   196567927.022          41.000    37748811.830   159727645.189          39.000  
C 3  36793594.116   191593898.317          46.000    36793593.830   155685764.558          43.000  
C 4  38425591.157   200092114.847          41.000    38425590.657   162591342.260          37.000  
C 5  40179410.137   209224758.797          36.000    40179412.835   170012315.447          36.000  
C 6  36437852.782   189741579.505          46.000    36437849.137   154180608.053          44.000  
C 8  36260467.563   188817836.256          46.000    36260463.578   153429919.853          45.000  
C 9  37576001.062   195668195.221          44.000    37575998.829   158996449.021          42.000  
C13  35965713.937   187282990.415          48.000    35965716.260   152182740.410          45.000  
C14  25794262.779   134317619.632          37.000    25794261.046   109144122.469          36.000  
C16  36892172.673   192107493.860          48.000    36892172.852   156103142.210          43.000  
C23  22382667.959   116552505.934          51.000    22382662.080    94708468.070          49.000  
C24  25905656.875   134897771.089          39.000    25905659.680   109617541.419          38.000  
C25  21986831.468   114491433.298          50.000    21986831.790    93035371.995          48.000  
C32  24265179.374   126355219.276          46.000    24265183.556   102674007.297          45.000  
C33  24029666.223   125129049.789          46.000    24029681.609   101679736.004          45.000  
> 2024  6 26 12 51 11.0000000  0 30                     
G10  20306821.363   106713140.868          50.000    20306825.366    83153146.790          47.000  
G12  21723306.676   114156992.498          45.000    21723308.320    88953626.172          43.000  
G23  20972169.787   110209615.131          45.000    20972172.468    85877688.564          46.000  
G24  24057143.259   126421359.024          37.000    24057148.477    98510281.614          37.000  
G25  20511452.679   107788659.465          46.000    20511456.950    83991309.010          45.000  
G28  21989813.933   115557465.481          44.000    21989816.649    90044888.178          45.000  
G31  24406813.878   128258702.523          36.000    24406818.507    99941868.663          32.000  
G32  21689362.376   113978524.389          48.000    21689366.433    88814531.437          45.000  
R 5  22515838.729   120360325.130          46.000                                                  
R 6  19668985.213   104957485.828          40.000                                                  
R 7  21726010.956   116301085.065          51.000                                                  
R 9  19681077.717   105096045.711          51.000                                                  
R10  22886180.949   121996288.022          39.000                                                  
R16  19989586.970   106781054.080          52.000                                                  
C 1  37081540.055   193093328.439          45.000    37081540.967   156904180.383          37.000  
C 2  37748820.282   196567967.609          41.000    37748819.620   159727678.197          35.000  
C 3  36793605.606   191593958.429          46.000    36793605.445   155685813.430          38.000  
C 4  38425602.057   200092171.308          42.000    38425601.432   162591388.159          33.000  
C 5  40179413.157   209224773.354          37.000    40179415.337   170012327.263          30.000  
C 6  36437878.496   189741713.640          46.000    36437874.815   154180717.047          40.000  
C 8  36260662.085   188818849.080          46.000    36260658.101   153430742.855          40.000  
C 9  37576018.074   195668283.888          44.000    37576015.697   158996521.053          38.000  
C13  35965854.334   187283721.240          48.000    35965856.622   152183334.267          41.000  
C14  25794789.934   134320364.071          37.000    25794787.968   109146352.555          34.000  
C16  36892213.701   192107708.546          47.000    36892214.415   156103316.670          39.000  
C23  22382371.548   116550962.672          51.000    22382365.597    94707214.053          44.000  
C24  25906247.071   134900845.691          38.000    25906249.930   109620039.782          34.000  
C25  21987107.437   114492871.087          50.000    21987107.884    93036540.316          44.000  
C32  24264681.525   126352626.006          46.000    24264685.528   102671900.052          41.000  
C33  24030084.877   125131229.687          47.000    24030100.387   101681507.347          40.000  
> 2024  6 26 12 51 12.0000000  0 30                     
G10  20306778.817   106712917.498          50.000    20306782.069    83152972.747          44.000  
G12  21723442.552   114157706.302          45.000    21723442.981    88954182.406          40.000  
G23  20972625.769   110212011.061          45.000    20972628.771    85879555.525          44.000  
G24  24057751.485   126424557.229          37.000    24057756.882    98512773.736          34.000  
G25  20511224.885   107787462.296          46.000    20511228.208    83990376.153          42.000  
G28  21989472.867   115555672.263          44.000    21989475.387    90043490.866          42.000  
G31  24406238.460   128255679.028          36.000    24406242.713    99939512.744          30.000  
G32  21689065.429   113976963.811          48.000    21689068.717    88813315.400          42.000  
R 5  22516327.125   120362934.765          46.000                                                  
R 6  19668845.781   104956742.895          40.000                                                  
R 7  21725430.142   116297974.998          51.000                                                  
R 9  19680696.963   105094012.233          51.000                                                  
R10  22885403.610   121992145.143          38.000                                                  
R16  19990006.874   106783297.046          52.000                                                  
C 1  37081549.115   193093376.071          44.000    37081550.401   156904219.062          37.000  
C 2  37748825.482   196567995.657          41.000    37748825.213   159727700.987          34.000  
C 3  36793614.880   191594006.012          45.000    36793614.487   155685852.098          38.000  
C 4  38425610.777   200092215.221          41.000    38425609.937   162591423.835          33.000  
C 5  40179413.693   209224775.351          36.000    40179415.694   170012328.884          31.000  
C 6  36437901.869   189741835.229          46.000    36437898.152   154180815.871          40.000  
C 8  36260854.320   188819849.545          45.000    36260850.246   153431555.789          40.000  
C 9  37576032.476   195668360.040          44.000    37576030.421   158996582.945          37.000  
C13  35965992.390   187284439.698          48.000    35965994.678   152183918.059          41.000  
C14  25795315.265   134323096.181          37.000    25795312.585   109148572.599          32.000  
C16  36892252.494   192107910.697          47.000    36892253.066   156103480.935          39.000  
C23  22382072.760   116549407.294          50.000    22382066.970    94705950.171          44.000  
C24  25906834.854   134903907.775          38.000    25906837.946   109622527.981          34.000  
C25  21987381.137   114494296.700          50.000    21987381.566    93037698.746          44.000  
C32  24264180.961   126350020.279          46.000    24264185.070   102669782.688          40.000  
C33  24030501.136   125133397.338          46.000    24030516.682   101683268.736          40.000  
> 2024  6 26 12 51 13.0000000  0 30                     
G10  20306736.200   106712694.295          50.000    20306739.898    83152798.820          45.000  
G12  21723578.285   114158420.283          45.000    21723579.894    88954738.734          41.000  
G23  20973081.590   110214406.980          45.000    20973083.788    85881422.463          44.000  
G24  24058359.943   126427754.892          37.000    24058365.822    98515265.355          35.000  
G25  20510997.108   107786265.287          46.000    20511002.630    83989443.417          43.000  
G28  21989131.372   115553878.857          44.000    21989134.982    90042093.411          43.000  
G31  24405664.025   128252655.179          36.000    24405666.884    99937156.442          30.000  
G32  21688768.392   113975402.817          48.000    21688772.288    88812099.057          43.000  
R 5  22516815.110   120365544.266          46.000                                                  
R 6  19668706.670   104955999.929          40.000                                                  
R 7  21724848.791   116294864.458          51.000                                                  
R 9  19680316.175   105091978.949          51.000                                                  
R10  22884626.129   121988001.993          39.000                                                  
R16  19990426.707   106785540.152          52.000                                                  
C 1  37081558.210   193093423.195          45.000    37081559.336   156904257.363          36.000  
C 2  37748831.128   196568023.214          41.000    37748830.503   159727723.388          35.000  
C 3  36793623.815   191594053.077          46.000    36793623.278   155685890.347          38.000  
C 4  38425618.836   200092258.605          42.000    38425618.175   162591459.067          30.000  
C 5  40179413.854   209224776.837          37.000    40179415.837   170012330.042          30.000  
C 6  36437925.170   189741956.352          46.000    36437921.364   154180914.254          40.000  
C 8  36261046.484   188820849.691          46.000    36261042.249   153432368.513          40.000  
C 9  37576047.111   195668435.723          44.000    37576044.913   158996644.439          38.000  
C13  35966130.321   187285157.839          48.000    35966132.519   152184501.605          40.000  
C14  25795839.488   134325827.940          37.000    25795837.130   109150792.337          32.000  
C16  36892291.306   192108112.340          47.000    36892291.878   156103644.781          39.000  
C23  22381774.186   116547851.825          51.000    22381768.182    94704686.239          44.000  
C24  25907423.496   134906969.391          39.000    25907425.926   109625015.786          34.000  
C25  21987654.980   114495722.200          50.000    21987655.123    93038857.079          44.000  
C32  24263680.717   126347414.140          46.000    24263684.434   102667664.977          40.000  
C33  24030917.448   125135564.777          46.000    24030932.976   101685029.967          40.000  
> 2024  6 26 12 51 14.0000000  0 30                     
G10  20306696.405   106712484.787          50.000    20306700.086    83152635.563          45.000  
G12  21723716.860   114159147.964          46.000    21723718.539    88955305.759          41.000  
G23  20973540.145   110216816.479          45.000    20973542.361    85883300.001          44.000  
G24  24058970.331   126430965.601          37.000    24058976.692    98517767.238          35.000  
G25  20510771.691   107785081.988          46.000    20510776.319    83988521.354          43.000  
G28  21988792.790   115552098.850          44.000    21988795.935    90040706.397          43.000  
G31  24405090.697   128249644.605          36.000    24405093.199    99934810.564          31.000  
G32  21688473.732   113973854.980          48.000    21688476.895    88810892.948          43.000  
R 5  22517305.758   120368167.411          46.000                                                  
R 6  19668569.990   104955270.705          40.000                                                  
R 7  21724270.299   116291767.241          51.000                                                  
R 9  19679937.959   105089959.682          51.000                                                  
R10  22883851.436   121983872.392          39.000                                                  
R16  19990849.309   106787797.201          52.000                                                  
C 1  37081569.539   193093483.237          45.000    37081571.022   156904306.165          38.000  
C 2  37748838.758   196568063.691          41.000    37748838.437   159727756.269          36.000  
C 3  36793635.537   191594113.085          46.000    36793634.911   155685939.079          39.000  
C 4  38425629.808   200092314.923          41.000    38425629.164   162591504.861          34.000  
C 5  40179416.891   209224791.231          37.000    40179418.500   170012341.768          31.000  
C 6  36437950.794   189742090.403          46.000    36437947.238   154181023.196          41.000  
C 8  36261241.131   188821862.994          46.000    36261236.807   153433191.898          41.000  
C 9  37576064.247   195668524.370          44.000    37576061.996   158996716.471          38.000  
C13  35966270.683   187285889.121          48.000    35966272.988   152185095.852          41.000  
C14  25796366.553   134328572.803          37.000    25796364.266   109153022.832          33.000  
C16  36892332.619   192108326.930          47.000    36892332.976   156103819.151          39.000  
C23  22381478.007   116546309.723          51.000    22381472.128    94703433.148          45.000  
C24  25908013.924   134910043.985          38.000    25908016.390   109627514.138          34.000  
C25  21987931.360   114497161.006          50.000    21987931.664    93040026.225          45.000  
C32  24263182.815   126344821.021          46.000    24263186.567   102665557.858          41.000  
C33  24031336.280   125137745.448          47.000    24031351.648   101686801.941          41.000  
> 2024  6 26 12 51 15.0000000  0 30                     
G10  20306654.431   106712263.348          50.000    20306657.415    83152463.015          46.000  
G12  21723853.182   114159863.753          46.000    21723854.701    88955863.511          41.000  
G23  20973996.413   110219213.885          45.000    20973999.415    85885168.117          45.000  
G24  24059579.111   126434163.645          37.000    24059586.687    98520259.239          36.000  
G25  20510544.129   107783886.744          46.000    20510549.793    83987590.011          44.000  
G28  21988451.992   115550306.565          44.000    21988455.101    90039309.812          44.000  
G31  24404515.011   128246621.657          36.000    24404517.209    99932455.028          32.000  
G32  21688176.945   113972294.643          48.000    21688180.662    88809677.112          44.000  
R 5  22517794.404   120370778.108          46.000                                                  
R 6  19668431.076   104954529.154          40.000                                                  
R 7  21723689.502   116288657.219          51.000                                                  
R 9  19679557.617   105087928.340          51.000                                                  
R10  22883074.419   121979730.245          39.000                                                  
R16  19991269.571   106790042.094          52.000                                                  
C 1  37081578.742   193093530.814          44.000    37081579.939   156904344.801          38.000  
C 2  37748844.208   196568091.689          41.000    37748843.922   159727778.987          36.000  
C 3  36793644.650   191594160.595          46.000    36793644.132   155685977.685          39.000  
C 4  38425638.403   200092358.746          41.000    38425637.491   162591540.449          34.000  
C 5  40179417.553   209224793.164          37.000    40179418.929   170012343.363          32.000  
C 6  36437974.059   189742211.971          46.000    36437970.789   154181121.996          41.000  
C 8  36261433.295   188822864.009          46.000    36261429.042   153434005.302          41.000  
C 9  37576078.650   195668600.565          44.000    37576076.934   158996778.372          39.000  
C13  35966408.703   187286608.117          48.000    35966411.079   152185680.077          41.000  
C14  25796891.116   134331305.347          37.000    25796889.043   109155243.198          33.000  
C16  36892371.484   192108529.032          47.000    36892371.699   156103983.385          40.000  
C23  22381179.380   116544755.566          51.000    22381173.680    94702170.268          45.000  
C24  25908601.618   134913106.104          39.000    25908604.424   109630002.388          34.000  
C25  21988205.221   114498587.719          50.000    21988205.757    93041185.555          45.000  
C32  24262682.250   126342215.521          46.000    24262686.092   102663440.680          41.000  
C33  24031752.503   125139913.939          46.000    24031768.049   101688564.013          41.000  
> 2024  6 26 12 51 16.0000000  0 30                     
G10  20306612.331   106712042.487          50.000    20306615.816    83152290.899          45.000  
G12  21723989.398   114160580.119          46.000    21723991.006    88956421.716          41.000  
G23  20974452.645   110221611.737          45.000    20974455.897    85887036.562          45.000  
G24  24060187.712   126437361.598          37.000    24060194.877    98522751.130          35.000  
G25  20510316.781   107782692.086          46.000    20510321.373    83986659.131          43.000  
G28  21988110.729   115548514.518          44.000    21988114.035    90037913.416          43.000  
G31  24403939.307   128243598.846          36.000    24403941.236    99930099.603          31.000  
G32  21687879.855   113970734.350          48.000    21687883.733    88808461.288          43.000  
R 5  22518282.836   120373389.081          46.000                                                  
R 6  19668291.895   104953787.970          40.000                                                  
R 7  21723108.098   116285547.139          51.000                                                  
R 9  19679177.239   105085897.647          51.000                                                  
R10  22882297.349   121975588.301          39.000                                                  
R16  19991689.850   106792287.557          52.000                                                  
C 1  37081587.873   193093578.307          45.000    37081589.088   156904383.381          37.000  
C 2  37748849.319   196568119.598          41.000    37748849.158   159727801.651          35.000  
C 3  36793653.906   191594208.027          46.000    36793653.209   155686016.249          39.000  
C 4  38425646.676   200092402.496          41.000    38425645.783   162591575.976          34.000  
C 5  40179417.928   209224795.028          36.000    40179419.322   170012344.873          32.000  
C 6  36437997.236   189742333.496          46.000    36437994.019   154181220.733          40.000  
C 8  36261625.440   188823865.146          46.000    36261621.384   153434818.812          40.000  
C 9  37576093.463   195668676.705          44.000    37576091.265   158996840.266          39.000  
C13  35966546.634   187287327.211          48.000    35966549.296   152186264.407          41.000  
C14  25797415.661   134334038.001          37.000    25797413.821   109157463.705          33.000  
C16  36892410.224   192108731.061          48.000    36892410.492   156104147.550          39.000  
C23  22380881.182   116543201.748          51.000    22380875.303    94700907.669          44.000  
C24  25909190.027   134916168.200          39.000    25909192.547   109632490.568          34.000  
C25  21988479.457   114500014.731          50.000    21988479.796    93042345.117          44.000  
C32  24262181.953   126339610.021          46.000    24262185.670   102661323.505          41.000  
C33  24032169.209   125142082.654          47.000    24032184.576   101690326.279          41.000  
> 2024  6 26 12 51 17.0000000  0 30                     
G10  20306573.020   106711835.834          50.000    20306576.022    83152129.887          47.000  
G12  21724128.222   114161310.726          46.000    21724130.242    88956991.023          43.000  
G23  20974911.503   110224023.654          45.000    20974914.023    85888915.992          47.000  
G24  24060799.101   126440573.111          38.000    24060806.373    98525253.612          37.000  
G25  20510092.310   107781511.663          46.000    20510097.063    83985739.287          45.000  
G28  21987772.469   115546736.371          44.000    21987774.506    90036527.842          45.000  
G31  24403366.944   128240589.760          36.000    24403370.089    99927754.847          33.000  
G32  21687585.499   113969187.708          48.000    21687589.340    88807256.119          45.000  
R 5  22518774.198   120376014.211          46.000                                                  
R 6  19668155.465   104953061.053          40.000                                                  
R 7  21722529.803   116282450.924          51.000                                                  
R 9  19678799.720   105083881.413          51.000                                                  
R10  22881523.084   121971460.385          39.000                                                  
R16  19992112.971   106794547.454          52.000                                                  
C 1  37081599.505   193093639.222          45.000    37081600.864   156904432.877          41.000  
C 2  37748857.467   196568160.944          41.000    37748857.110   159727835.288          39.000  
C 3  36793665.485   191594268.886          46.000    36793664.609   155686065.707          42.000  
C 4  38425657.737   200092459.683          42.000    38425656.754   162591622.429          37.000  
C 5  40179420.447   209224810.329          36.000    40179422.324   170012357.320          34.000  
C 6  36438023.181   189742468.449          46.000    36438019.876   154181330.391          44.000  
C 8  36261820.266   188824879.885          46.000    36261816.281   153435643.390          44.000  
C 9  37576110.617   195668766.316          44.000    37576108.616   158996913.087          42.000  
C13  35966687.352   187288059.926          48.000    35966689.836   152186859.807          45.000  
C14  25797942.923   134336784.237          37.000    25797941.297   109159695.290          35.000  
C16  36892451.430   192108946.524          48.000    36892451.930   156104322.636          42.000  
C23  22380585.378   116541661.793          51.000    22380579.499    94699656.321          48.000  
C24  25909780.491   134919243.753          38.000    25909783.136   109634989.698          37.000  
C25  21988756.105   114501455.550          50.000    21988756.409    93043515.897          48.000  
C32  24261684.122   126337018.062          46.000    24261688.196   102659217.319          43.000  
C33  24032588.220   125144265.097          47.000    24032603.641   101692099.678          44.000  
> 2024  6 26 12 51 18.0000000  0 30                     
G10  20306531.564   106711617.341          50.000    20306535.227    83151959.633          46.000  
G12  21724265.188   114162029.493          46.000    21724266.457    88957551.128          41.000  
G23  20975368.253   110226423.602          45.000    20975371.023    85890786.067          45.000  
G24  24061407.987   126443772.056          37.000    24061415.171    98527746.283          35.000  
G25  20509865.624   107780319.396          46.000    20509871.020    83984810.269          44.000  
G28  21987431.671   115544946.041          44.000    21987433.887    90035132.761          44.000  
G31  24402792.455   128237568.388          36.000    24402795.689    99925400.526          31.000  
G32  21687288.819   113967628.679          48.000    21687291.964    88806041.294          44.000  
R 5  22519263.363   120378626.968          46.000                                                  
R 6  19668017.051   104952321.889          40.000                                                  
R 7  21721949.292   116279342.070          51.000                                                  
R 9  19678419.950   105081853.216          51.000                                                  
R10  22880746.514   121967320.072          38.000                                                  
R16  19992533.733   106796795.321          52.000                                                  
C 1  37081609.012   193093687.755          45.000    37081610.048   156904472.329          37.000  
C 2  37748862.774   196568189.914          41.000    37748862.685   159727858.817          35.000  
C 3  36793674.831   191594317.365          46.000    36793674.009   155686105.085          39.000  
C 4  38425666.421   200092504.469          41.000    38425665.224   162591658.882          34.000  
C 5  40179421.198   209224813.219          37.000    40179422.717   170012359.659          32.000  
C 6  36438046.626   189742591.031          46.000    36438043.445   154181429.992          40.000  
C 8  36262012.858   188825882.476          46.000    36262008.999   153436458.075          41.000  
C 9  37576125.359   195668843.559          44.000    37576123.144   158996975.850          39.000  
C13  35966825.784   187288780.463          48.000    35966828.053   152187445.298          41.000  
C14  25798467.861   134339518.269          37.000    25798466.467   109161916.896          33.000  
C16  36892490.492   192109149.609          47.000    36892490.760   156104487.654          39.000  
C23  22380287.359   116540109.874          51.000    22380281.426    94698395.256          45.000  
C24  25910368.758   134922306.945          38.000    25910371.402   109637478.851          34.000  
C25  21989030.359   114502884.367          50.000    21989030.948    93044676.938          45.000  
C32  24261183.843   126334413.801          46.000    24261188.096   102657101.139          41.000  
C33  24033004.854   125146435.463          47.000    24033020.525   101693863.281          41.000  
> 2024  6 26 12 51 19.0000000  0 30                     
G10  20306488.517   106711391.374          50.000    20306491.269    83151783.559          46.000  
G12  21724400.457   114162740.812          45.000    21724401.779    88958105.385          41.000  
G23  20975823.359   110228815.916          45.000    20975825.754    85892650.211          45.000  
G24  24062014.820   126446962.846          37.000    24062019.340    98530232.620          35.000  
G25  20509637.329   107779119.656          46.000    20509642.172    83983875.392          44.000  
G28  21987089.747   115543147.905          44.000    21987092.195    90033731.626          44.000  
G31  24402216.268   128234539.086          36.000    24402219.860    99923040.024          32.000  
G32  21686990.585   113966061.619          48.000    21686993.516    88804820.204          44.000  
R 5  22519750.651   120381231.842          46.000                                                  
R 6  19667877.155   104951574.957          40.000                                                  
R 7  21721366.851   116276225.020          51.000                                                  
R 9  19678038.785   105079817.496          51.000                                                  
R10  22879968.157   121963171.733          38.000                                                  
R16  19992953.172   106799035.570          52.000                                                  
C 1  37081616.535   193093728.231          45.000    37081617.660   156904505.214          36.000  
C 2  37748866.598   196568210.827          41.000    37748866.545   159727875.787          34.000  
C 3  36793682.479   191594357.774          46.000    36793681.925   155686137.930          38.000  
C 4  38425673.515   200092541.191          42.000    38425672.175   162591688.682          32.000  
C 5  40179420.001   209224808.072          35.000    40179421.841   170012355.470          30.000  
C 6  36438068.765   189742705.577          46.000    36438065.459   154181523.087          40.000  
C 8  36262203.896   188826877.173          46.000    36262199.876   153437266.350          40.000  
C 9  37576138.547   195668912.772          44.000    37576136.563   158997032.083          38.000  
C13  35966962.911   187289493.112          48.000    35966965.144   152188024.374          40.000  
C14  25798991.352   134342244.395          38.000    25798990.065   109164132.101          32.000  
C16  36892527.963   192109344.621          48.000    36892528.321   156104646.120          38.000  
C23  22379987.856   116538550.308          50.000    22379981.923    94697127.997          44.000  
C24  25910955.237   134925362.105          38.000    25910958.096   109639961.408          34.000  
C25  21989303.237   114504305.518          50.000    21989303.916    93045831.728          44.000  
C32  24260682.242   126331801.575          46.000    24260686.351   102654978.506          40.000  
C33  24033420.166   125148598.049          46.000    24033435.730   101695620.573          40.000  
