     3.02           OBSERVATION DATA    M: Mixed            RINEX VERSION / TYPE
RTKCONV 2.4.3 b29   SINOGNSS            20250325 095412 UTC PGM / RUN BY / DATE 
log: D:\sinodata\AI\RTKlib-AI\data\k803\base1.24O           COMMENT             
format: RINEX                                               COMMENT             
rtkconv-2.4.3    FILE CONVERSION     20220401 131200 UTC    COMMENT             
0008                                                        MARKER NAME         
                                                            MARKER NUMBER       
                                                            MARKER TYPE         
                                                            OBSERVER / AGENCY   
09097550            SINOGNSS K803       609A7-1.001         REC # / TYPE / VERS 
                    NONE                                    ANT # / TYPE        
 -2831682.2116  4658825.8419  3299194.4493                  APPROX POSITION XYZ 
        0.0000        0.0000        0.0000                  ANTENNA: DELTA H/E/N
G    6 C1C L1C S1C C2X L2X S2X                              SYS / # / OBS TYPES 
R    6 C1C L1C S1C C2P L2P S2P                              SYS / # / OBS TYPES 
C    6 C1I L1I S1I C6I L6I S6I                              SYS / # / OBS TYPES 
  2024     6    26    12    26   43.0000000     GPS         TIME OF FIRST OBS   
  2024     6    26    12    29    4.0000000     GPS         TIME OF LAST OBS    
G                                                           SYS / PHASE SHIFT   
R                                                           SYS / PHASE SHIFT   
C                                                           SYS / PHASE SHIFT   
  3 R01  1 R09 -2 R17  4                                    GLONASS SLOT / FRQ #
 C1C    0.000 C1P    0.000 C2C    0.000 C2P    0.000        GLONASS COD/PHS/BIS 
                                                            END OF HEADER       
> 2024  6 26 12 26 43.0000000  0 32                     
G10  20500040.520   107728511.624          50.000    20500043.147    83944344.663          47.000  
G12  21663456.063   113842473.665          45.000    21663458.297    88708546.088          43.000  
G15  24981040.775   131276442.604          34.000    24981046.957   102293446.363          34.000  
G18  25280564.357   132850271.578          33.000    25280572.667   103519724.128          34.000  
G23  20415172.811   107282577.827          46.000    20415174.365    83596881.480          48.000  
G24  23162850.409   121721836.468          40.000    23162855.358    94848320.090          40.000  
G25  20974857.074   110223859.164          46.000    20974861.809    85888865.447          44.000  
G28  22557749.700   118541973.778          43.000    22557752.970    92370476.002          43.000  
G32  22143537.350   116365221.543          47.000    22143541.227    90674293.269          44.000  
R 5  21874915.633   116934231.951          47.000                                                  
R 6  19961106.499   106516296.353          40.000                                                  
R 7  22580640.759   120875970.090          49.000                                                  
R 9  20378801.576   108821843.716          50.000                                                  
R15  23080986.678   123338078.552          44.000                                                  
R16  19518622.191   104265243.946          52.000    19518627.463    81093755.951          27.000  
R22  23661418.360   126306239.364          42.000                                                  
C 1  37067356.608   193019471.156          45.000    37067358.198   156844164.800          41.000  
C 2  37740748.933   196525935.994          41.000    37740748.433   159693523.486          39.000  
C 3  36779575.743   191520898.743          46.000    36779575.135   155626446.082          42.000  
C 4  38412232.901   200022552.384          41.000    38412232.776   162534816.406          37.000  
C 5  40178595.881   209220508.339          37.000    40178597.883   170008864.514          35.000  
C 6  36407856.179   189585381.341          45.000    36407853.266   154053683.939          44.000  
C 8  36019369.842   187562377.786          47.000    36019365.554   152409757.291          45.000  
C 9  37562427.485   195597511.018          44.000    37562425.519   158939011.588          42.000  
C13  35803273.243   186437119.978          49.000    35803276.174   151495401.736          46.000  
C14  25062684.215   130508096.423          37.000    25062681.785   106048571.662          38.000  
C16  36837673.315   191823700.802          48.000    36837674.012   155872536.778          43.000  
C23  22906195.541   119278648.145          49.000    22906191.020    96923680.339          48.000  
C24  25056736.636   130477240.965          41.000    25056739.728   106025501.947          40.000  
C25  21670474.908   112844081.034          51.000    21670474.926    91696763.205          49.000  
C32  25012355.433   130245943.191          44.000    25012359.704   105835536.118          42.000  
C33  23482424.929   122279423.581          48.000    23482439.689    99364182.209          46.000  
> 2024  6 26 12 26 44.0000000  0 32                     
G10  20499823.590   107727371.673          50.000    20499826.289    83943456.394          47.000  
G12  21663402.117   113842190.614          45.000    21663404.100    88708325.520          43.000  
G15  24981570.877   131279227.806          34.000    24981577.078   102295616.586          34.000  
G18  25281163.131   132853418.114          33.000    25281171.368   103522176.017          34.000  
G23  20415472.045   107284150.562          46.000    20415473.582    83598106.988          49.000  
G24  23163456.508   121725021.398          40.000    23163462.566    94850801.847          40.000  
G25  20974458.952   110221768.026          46.000    20974463.973    85887235.968          44.000  
G28  22557317.610   118539703.275          43.000    22557320.504    92368706.781          44.000  
G32  22143217.816   116363541.794          47.000    22143221.229    90672984.363          44.000  
R 5  21875300.478   116936290.074          47.000                                                  
R 6  19960854.188   106514950.917          40.000                                                  
R 7  22580062.392   120872874.684          49.000                                                  
R 9  20378237.826   108818833.130          50.000                                                  
R15  23081734.318   123342073.310          43.000                                                  
R16  19518836.637   104266389.420          53.000    19518841.462    81094646.821          27.000  
R22  23661702.478   126307755.657          42.000                                                  
C 1  37067366.972   193019524.444          44.000    37067368.437   156844208.081          41.000  
C 2  37740754.669   196525965.523          41.000    37740754.276   159693547.499          39.000  
C 3  36779585.964   191520950.998          46.000    36779585.195   155626488.541          42.000  
C 4  38412242.908   200022603.619          41.000    38412242.264   162534858.024          37.000  
C 5  40178596.953   209220512.538          36.000    40178598.597   170008867.917          35.000  
C 6  36407872.618   189585467.344          45.000    36407869.813   154053753.814          44.000  
C 8  36019506.272   187563089.216          46.000    36019502.073   152410335.379          45.000  
C 9  37562430.254   195597526.142          44.000    37562428.432   158939023.872          43.000  
C13  35803357.120   186437556.577          49.000    35803359.926   151495756.508          46.000  
C14  25063155.171   130510549.687          37.000    25063152.813   106050565.173          37.000  
C16  36837707.695   191823879.941          48.000    36837708.267   155872682.346          43.000  
C23  22905782.856   119276499.212          48.000    22905778.317    96921934.162          48.000  
C24  25057301.369   130480181.458          41.000    25057304.389   106027891.331          40.000  
C25  21670628.600   112844882.174          51.000    21670628.832    91697414.199          49.000  
C32  25011841.073   130243265.389          44.000    25011845.451   105833360.182          41.000  
C33  23482754.273   122281138.815          48.000    23482769.087    99365575.967          46.000  
> 2024  6 26 12 26 45.0000000  0 32                     
G10  20499605.624   107726226.317          50.000    20499608.197    83942563.911          47.000  
G12  21663347.438   113841902.245          45.000    21663348.438    88708100.817          43.000  
G15  24982099.693   131282007.113          34.000    24982105.322   102297782.305          33.000  
G18  25281760.599   132856558.405          33.000    25281768.354   103524623.020          34.000  
G23  20415770.279   107285717.927          46.000    20415771.977    83599328.286          49.000  
G24  23164061.589   121728200.400          40.000    23164066.449    94853278.985          40.000  
G25  20974060.008   110219671.445          46.000    20974064.547    85885602.284          44.000  
G28  22556884.625   118537427.120          43.000    22556887.449    92366933.163          43.000  
G32  22142897.067   116361856.118          47.000    22142900.444    90671670.872          44.000  
R 5  21875684.359   116938342.498          47.000                                                  
R 6  19960601.020   106513599.703          40.000                                                  
R 7  22579483.078   120869773.157          49.000                                                  
R 9  20377672.986   108815817.057          50.000                                                  
R15  23082480.850   123346062.234          43.000                                                  
R16  19519050.047   104267529.658          53.000    19519054.246    81095533.715          28.000  
R22  23661985.470   126309266.444          42.000                                                  
C 1  37067375.996   193019571.783          44.000    37067377.568   156844246.560          41.000  
C 2  37740759.244   196525989.160          41.000    37740758.833   159693566.699          39.000  
C 3  36779594.809   191520997.313          46.000    36779594.166   155626526.171          42.000  
C 4  38412251.753   200022648.922          41.000    38412251.092   162534894.820          37.000  
C 5  40178597.114   209220510.793          36.000    40178598.383   170008866.499          35.000  
C 6  36407888.093   189585547.459          45.000    36407885.216   154053818.904          44.000  
C 8  36019641.898   187563794.903          46.000    36019637.645   152410908.802          45.000  
C 9  37562431.898   195597535.409          44.000    37562430.201   158939031.410          42.000  
C13  35803439.729   186437987.427          48.000    35803442.695   151496106.607          45.000  
C14  25063625.073   130512997.277          37.000    25063622.822   106052554.000          37.000  
C16  36837741.056   191824053.198          47.000    36837741.521   155872823.122          43.000  
C23  22905368.974   119274344.736          48.000    22905364.614    96920183.464          48.000  
C24  25057865.154   130483116.161          41.000    25057868.121   106030276.002          39.000  
C25  21670781.469   112845677.871          50.000    21670781.594    91698060.766          48.000  
C32  25011325.874   130240581.679          44.000    25011329.984   105831179.452          41.000  
C33  23483082.652   122282848.439          48.000    23483097.430    99366965.181          46.000  
> 2024  6 26 12 26 46.0000000  0 32                     
G10  20499387.890   107725082.624          50.000    20499390.803    83941672.724          47.000  
G12  21663292.687   113841615.617          45.000    21663294.706    88707877.491          43.000  
G15  24982628.759   131284787.529          34.000    24982634.388   102299948.880          33.000  
G18  25282358.336   132859699.653          33.000    25282365.787   103527070.728          34.000  
G23  20416068.656   107287286.936          46.000    20416070.211    83600550.904          48.000  
G24  23164666.741   121731380.547          40.000    23164671.780    94855757.026          40.000  
G25  20973661.333   110217576.492          46.000    20973666.497    85883969.865          44.000  
G28  22556451.534   118535152.377          43.000    22556454.786    92365160.652          43.000  
G32  22142576.443   116360171.598          47.000    22142579.909    90670358.229          44.000  
R 5  21876068.578   116940396.414          47.000                                                  
R 6  19960347.977   106512249.967          40.000                                                  
R 7  22578903.747   120866672.664          49.000                                                  
R 9  20377108.415   108812802.675          50.000                                                  
R15  23083227.329   123350052.469          43.000                                                  
R16  19519263.832   104268671.835          53.000    19519267.263    81096422.042          28.000  
R22  23662269.015   126310778.882          42.000                                                  
C 1  37067385.520   193019620.191          45.000    37067386.717   156844285.881          41.000  
C 2  37740763.675   196526013.844          41.000    37740763.443   159693586.764          39.000  
C 3  36779603.779   191521044.701          46.000    36779603.243   155626564.690          42.000  
C 4  38412260.580   200022695.298          42.000    38412260.044   162534932.525          37.000  
C 5  40178596.060   209220510.124          36.000    40178598.169   170008865.979          35.000  
C 6  36407903.817   189585628.688          45.000    36407900.744   154053884.916          44.000  
C 8  36019777.649   187564501.847          46.000    36019773.450   152411483.261          45.000  
C 9  37562433.900   195597545.778          44.000    37562432.184   158939039.831          42.000  
C13  35803522.891   186438419.563          49.000    35803525.643   151496457.746          45.000  
C14  25064095.815   130515446.095          37.000    25064093.081   106054543.915          37.000  
C16  36837774.596   191824227.548          48.000    36837775.079   155872964.791          43.000  
C23  22904955.717   119272191.703          48.000    22904951.160    96918433.960          48.000  
C24  25058428.976   130486052.037          41.000    25058431.960   106032661.662          40.000  
C25  21670934.661   112846475.089          50.000    21670934.696    91698708.571          49.000  
C32  25010810.781   130237899.041          44.000    25010814.998   105828999.585          41.000  
C33  23483411.407   122284559.436          49.000    23483425.934    99368355.502          46.000  
> 2024  6 26 12 26 47.0000000  0 32                     
G10  20499172.818   107723952.254          50.000    20499175.624    83940791.905          47.000  
G12  21663240.849   113841342.411          45.000    21663242.689    88707664.590          43.000  
G15  24983160.219   131287580.828          34.000    24983165.473   102302125.496          33.000  
G18  25282958.789   132862853.381          33.000    25282965.561   103529528.201          34.000  
G23  20416369.857   107288869.293          46.000    20416371.483    83601783.914          48.000  
G24  23165274.091   121734573.470          40.000    23165279.845    94858245.014          40.000  
G25  20973265.373   110215494.824          46.000    20973269.983    85882347.770          44.000  
G28  22556021.230   118532890.668          43.000    22556023.678    92363398.264          43.000  
G32  22142258.196   116358499.860          47.000    22142262.002    90669055.601          44.000  
R 5  21876455.371   116942463.668          47.000                                                  
R 6  19960097.632   106510913.506          40.000                                                  
R 7  22578327.131   120863585.118          49.000                                                  
R 9  20376546.577   108809801.848          50.000                                                  
R15  23083976.952   123354055.895          43.000                                                  
R16  19519480.244   104269827.790          53.000    19519482.853    81097321.174          27.000  
R22  23662554.687   126312304.868          42.000                                                  
C 1  37067397.188   193019681.237          44.000    37067398.546   156844335.481          41.000  
C 2  37740770.966   196526051.171          41.000    37740770.680   159693617.084          39.000  
C 3  36779615.305   191521104.712          46.000    36779614.822   155626613.462          43.000  
C 4  38412271.677   200022754.271          41.000    38412271.444   162534980.464          38.000  
C 5  40178597.704   209220522.098          37.000    40178600.277   170008875.735          36.000  
C 6  36407921.740   189585722.571          45.000    36407918.881   154053961.211          44.000  
C 8  36019915.938   187565221.628          46.000    36019911.720   152412068.137          45.000  
C 9  37562438.367   195597568.839          44.000    37562436.526   158939058.580          42.000  
C13  35803608.270   186438864.492          49.000    35803611.218   151496819.290          45.000  
C14  25064568.593   130517907.803          37.000    25064565.984   106056544.233          38.000  
C16  36837810.531   191824414.541          48.000    36837810.996   155873116.752          43.000  
C23  22904544.729   119270051.693          48.000    22904540.190    96916695.020          48.000  
C24  25058995.263   130489000.709          41.000    25058998.050   106035057.690          40.000  
C25  21671090.193   112847285.398          50.000    21671090.318    91699367.016          49.000  
C32  25010297.922   130235229.050          44.000    25010302.247   105826830.000          41.000  
C33  23483742.412   122286283.372          48.000    23483757.047    99369756.346          46.000  
> 2024  6 26 12 26 48.0000000  0 32                     
G10  20498955.513   107722809.850          50.000    20498958.301    83939901.713          47.000  
G12  21663186.527   113841057.245          45.000    21663188.153    88707442.387          43.000  
G15  24983689.411   131290361.570          34.000    24983694.521   102304292.240          33.000  
G18  25283556.686   132865994.326          33.000    25283562.922   103531975.705          34.000  
G23  20416668.859   107290439.628          46.000    20416669.967    83603007.554          48.000  
G24  23165879.708   121737753.843          40.000    23165884.533    94860723.236          40.000  
G25  20972866.983   110213401.071          46.000    20972871.325    85880716.272          44.000  
G28  22555588.496   118530616.670          43.000    22555590.676    92361626.324          44.000  
G32  22141937.750   116356815.578          47.000    22141941.414    90667743.173          44.000  
R 5  21876839.787   116944518.477          47.000                                                  
R 6  19959844.767   106509564.575          40.000                                                  
R 7  22577748.211   120860484.643          49.000                                                  
R 9  20375982.309   108806788.766          50.000                                                  
R15  23084723.913   123358046.751          44.000                                                  
R16  19519694.422   104270971.733          53.000    19519697.835    81098210.905          27.000  
R22  23662838.340   126313818.589          42.000                                                  
C 1  37067406.587   193019729.741          45.000    37067407.910   156844374.900          41.000  
C 2  37740776.041   196526075.977          41.000    37740775.487   159693637.248          39.000  
C 3  36779624.507   191521152.204          46.000    36779623.953   155626652.056          42.000  
C 4  38412280.558   200022800.772          41.000    38412280.397   162535018.205          37.000  
C 5  40178597.775   209220521.563          36.000    40178599.759   170008875.272          35.000  
C 6  36407937.429   189585803.980          45.000    36407934.552   154054027.360          44.000  
C 8  36020051.688   187565929.088          46.000    36020047.632   152412643.017          45.000  
C 9  37562440.672   195597579.453          44.000    37562438.617   158939067.197          42.000  
C13  35803691.325   186439297.093          48.000    35803694.184   151497170.811          45.000  
C14  25065038.817   130520357.158          37.000    25065036.476   106058534.542          38.000  
C16  36837844.035   191824589.048          48.000    36837844.554   155873258.551          43.000  
C23  22904131.258   119267899.530          48.000    22904127.005    96914946.213          48.000  
C24  25059558.959   130491936.974          40.000    25059562.086   106037443.639          40.000  
C25  21671243.384   112848083.671          50.000    21671243.598    91700015.669          48.000  
C32  25009782.669   130232546.546          44.000    25009787.101   105824650.263          42.000  
C33  23484071.077   122287995.116          48.000    23484085.801    99371147.281          46.000  
> 2024  6 26 12 26 49.0000000  0 32                     
G10  20498736.761   107721659.878          50.000    20498739.941    83939005.635          47.000  
G12  21663130.811   113840764.598          45.000    21663133.099    88707214.366          43.000  
G15  24984217.047   131293134.219          34.000    24984222.997   102306452.787          33.000  
G18  25284152.618   132869126.835          33.000    25284159.140   103534416.669          33.000  
G23  20416966.200   107292002.418          46.000    20416967.879    83604225.308          48.000  
G24  23166483.324   121740926.099          40.000    23166487.863    94863195.114          40.000  
G25  20972467.235   110211299.730          46.000    20972472.113    85879078.896          44.000  
G28  22555154.404   118528334.840          43.000    22555156.512    92359848.284          44.000  
G32  22141615.751   116355123.196          47.000    22141619.771    90666424.435          44.000  
R 5  21877222.667   116946565.351          47.000                                                  
R 6  19959590.509   106508207.675          40.000                                                  
R 7  22577167.217   120857375.807          49.000                                                  
R 9  20375416.576   108803767.996          50.000                                                  
R15  23085469.409   123362029.570          44.000                                                  
R16  19519907.153   104272108.207          52.000    19519909.190    81099094.799          27.000  
R22  23663120.671   126315324.600          42.000                                                  
C 1  37067414.396   193019770.183          45.000    37067415.665   156844407.755          41.000  
C 2  37740779.257   196526092.720          41.000    37740778.417   159693650.851          39.000  
C 3  36779632.209   191521191.631          46.000    36779631.548   155626684.082          42.000  
C 4  38412288.098   200022839.166          41.000    38412287.884   162535049.425          37.000  
C 5  40178595.846   209220512.933          36.000    40178598.026   170008868.283          35.000  
C 6  36407951.438   189585877.363          45.000    36407948.651   154054086.998          44.000  
C 8  36020185.974   187566628.684          46.000    36020182.061   152413211.493          45.000  
C 9  37562440.994   195597582.032          44.000    37562439.064   158939069.290          43.000  
C13  35803772.968   186439721.831          49.000    35803775.738   151497515.946          46.000  
C14  25065507.807   130522798.675          37.000    25065505.180   106060518.484          37.000  
C16  36837876.057   191824755.518          48.000    36837876.503   155873393.824          43.000  
C23  22903716.625   119265739.672          48.000    22903712.140    96913191.156          48.000  
C24  25060121.244   130494865.321          41.000    25060124.389   106039823.166          40.000  
C25  21671395.360   112848874.326          50.000    21671395.485    91700658.150          49.000  
C32  25009266.040   130229855.976          44.000    25009270.329   105822463.967          41.000  
C33  23484398.384   122289699.100          48.000    23484413.055    99372531.897          46.000  
> 2024  6 26 12 26 50.0000000  0 32                     
G10  20498520.492   107720523.307          50.000    20498523.547    83938120.001          47.000  
G12  21663077.526   113840485.476          45.000    21663079.313    88706996.880          43.000  
G15  24984747.042   131295919.899          34.000    24984753.082   102308623.417          33.000  
G18  25284751.123   132872272.115          32.000    25284758.449   103536867.500          33.000  
G23  20417266.042   107293578.628          46.000    20417267.847    83605453.517          48.000  
G24  23167089.370   121744111.267          40.000    23167094.462    94865677.054          40.000  
G25  20972069.685   110209211.782          45.000    20972074.438    85877451.896          44.000  
G28  22554722.706   118526066.168          43.000    22554725.529    92358080.485          43.000  
G32  22141295.984   116353443.711          47.000    22141299.576    90665115.768          44.000  
R 5  21877608.191   116948625.665          47.000                                                  
R 6  19959338.860   106506864.179          40.000                                                  
R 7  22576588.743   120854279.971          49.000                                                  
R 9  20374853.433   108800760.899          50.000                                                  
R15  23086217.156   123366025.668          44.000                                                  
R16  19520122.510   104273258.551          52.000    19520125.280    81099989.506          29.000  
R22  23663405.289   126316844.216          42.000                                                  
C 1  37067424.510   193019823.340          44.000    37067425.832   156844450.968          41.000  
C 2  37740784.707   196526122.156          41.000    37740784.153   159693674.779          38.000  
C 3  36779642.108   191521243.773          46.000    36779641.304   155626726.428          42.000  
C 4  38412297.926   200022890.267          41.000    38412297.623   162535090.958          37.000  
C 5  40178597.293   209220517.027          36.000    40178599.241   170008871.636          35.000  
C 6  36407967.914   189585963.495          45.000    36407965.162   154054156.991          44.000  
C 8  36020322.833   187567341.195          46.000    36020318.884   152413790.460          45.000  
C 9  37562443.853   195597597.388          44.000    37562442.155   158939081.759          43.000  
C13  35803856.881   186440159.465          49.000    35803859.830   151497871.571          45.000  
C14  25065978.727   130525253.113          37.000    25065976.476   106062512.906          37.000  
C16  36837910.419   191824934.747          48.000    36837910.991   155873539.450          43.000  
C23  22903304.333   119263592.925          48.000    22903299.812    96911446.746          48.000  
C24  25060686.119   130497806.520          41.000    25060689.353   106042213.131          39.000  
C25  21671549.730   112849678.168          50.000    21671549.748    91701311.335          48.000  
C32  25008751.805   130227178.145          44.000    25008756.058   105820288.000          41.000  
C33  23484728.085   122291416.110          48.000    23484742.702    99373927.118          46.000  
> 2024  6 26 12 26 51.0000000  0 32                     
G10  20498303.187   107719382.109          50.000    20498306.189    83937230.769          47.000  
G12  21663023.669   113840201.797          45.000    21663025.366    88706775.795          43.000  
G15  24985276.341   131298700.351          34.000    24985281.701   102310790.026          33.000  
G18  25285348.485   132875411.869          32.000    25285355.954   103539314.086          33.000  
G23  20417565.062   107295150.224          46.000    20417566.617    83606678.151          48.000  
G24  23167694.593   121747291.253          40.000    23167700.133    94868154.951          40.000  
G25  20971671.474   110207119.151          45.000    20971676.352    85875821.285          44.000  
G28  22554290.079   118523792.602          43.000    22554292.402    92356308.886          44.000  
G32  22140975.504   116351759.083          47.000    22140979.363    90663803.052          44.000  
R 5  21877992.786   116950681.023          47.000                                                  
R 6  19959085.941   106505515.715          40.000                                                  
R 7  22576009.680   120851178.764          49.000                                                  
R 9  20374289.469   108797749.096          50.000                                                  
R15  23086963.992   123370016.684          43.000                                                  
R16  19520336.956   104274404.433          53.000    19520341.245    81100880.701          27.000  
R22  23663688.906   126318359.114          42.000                                                  
C 1  37067433.963   193019871.338          44.000    37067435.160   156844489.959          41.000  
C 2  37740789.264   196526146.427          41.000    37740788.781   159693694.492          39.000  
C 3  36779651.043   191521290.728          46.000    36779650.364   155626764.594          42.000  
C 4  38412306.754   200022936.210          41.000    38412306.396   162535128.319          37.000  
C 5  40178596.703   209220515.928          37.000    40178598.919   170008870.729          35.000  
C 6  36407983.656   189586044.502          45.000    36407980.779   154054222.800          44.000  
C 8  36020458.691   187568048.735          46.000    36020454.742   152414365.394          45.000  
C 9  37562445.979   195597607.617          44.000    37562444.103   158939090.078          42.000  
C13  35803939.919   186440592.107          48.000    35803942.939   151498223.123          45.000  
C14  25066449.379   130527702.573          37.000    25066446.913   106064503.270          37.000  
C16  36837943.762   191825108.815          48.000    36837944.281   155873680.914          43.000  
C23  22902891.183   119261441.380          48.000    22902886.734    96909698.443          48.000  
C24  25061250.083   130500742.663          41.000    25061253.175   106044598.994          40.000  
C25  21671703.118   112850477.311          50.000    21671703.225    91701960.702          48.000  
C32  25008236.320   130224495.153          44.000    25008240.912   105818107.845          41.000  
C33  23485056.804   122293128.267          48.000    23485071.582    99375318.376          46.000  
> 2024  6 26 12 26 52.0000000  0 32                     
G10  20498086.310   107718242.648          50.000    20498089.366    83936342.875          47.000  
G12  21662970.062   113839919.949          45.000    21662972.135    88706556.189          43.000  
G15  24985805.693   131301482.088          34.000    24985810.857   102312957.613          33.000  
G18  25285945.953   132878552.612          32.000    25285953.458   103541761.480          34.000  
G23  20417864.457   107296723.564          46.000    20417866.477    83607904.126          48.000  
G24  23168299.603   121750472.444          40.000    23168306.107    94870633.799          40.000  
G25  20971273.549   110205028.215          46.000    20971278.284    85874191.980          44.000  
G28  22553857.541   118521520.511          43.000    22553860.365    92354538.417          43.000  
G32  22140655.255   116350075.666          47.000    22140659.293    90662491.306          44.000  
R 5  21878377.470   116952737.927          47.000                                                  
R 6  19958833.738   106504168.769          40.000                                                  
R 7  22575430.420   120848078.656          49.000                                                  
R 9  20373725.666   108794739.073          50.000                                                  
R15  23087710.845   123374009.103          43.000                                                  
R16  19520551.795   104275552.307          52.000    19520555.530    81101773.558          28.000  
R22  23663972.952   126319875.749          42.000                                                  
C 1  37067443.201   193019920.459          45.000    37067444.595   156844529.867          41.000  
C 2  37740794.356   196526171.873          41.000    37740793.677   159693715.168          39.000  
C 3  36779660.388   191521338.831          46.000    36779659.620   155626803.685          42.000  
C 4  38412315.867   200022983.298          41.000    38412315.277   162535166.566          37.000  
C 5  40178596.614   209220516.001          37.000    40178598.883   170008870.747          36.000  
C 6  36407999.363   189586126.673          45.000    36407996.486   154054289.568          44.000  
C 8  36020594.907   187568757.620          47.000    36020590.797   152414941.417          45.000  
C 9  37562448.266   195597619.062          44.000    37562446.283   158939099.383          42.000  
C13  35804023.313   186441026.098          49.000    35804026.226   151498575.771          45.000  
C14  25066919.496   130530153.395          37.000    25066917.494   106066494.779          37.000  
C16  36837977.499   191825284.063          48.000    36837977.964   155873823.325          43.000  
C23  22902478.320   119259291.354          48.000    22902473.781    96907951.367          48.000  
C24  25061814.155   130503680.105          41.000    25061817.246   106046985.888          40.000  
C25  21671857.006   112851278.053          51.000    21671857.042    91702611.375          49.000  
C32  25007721.388   130221813.307          44.000    25007725.820   105815928.646          41.000  
C33  23485386.005   122294841.883          48.000    23485400.693    99376710.832          46.000  
> 2024  6 26 12 26 53.0000000  0 32                     
G10  20497872.150   107717116.832          50.000    20497875.563    83935465.611          47.000  
G12  21662919.224   113839651.840          45.000    21662920.940    88706347.262          43.000  
G15  24986337.546   131304276.968          34.000    24986343.586   102315135.425          34.000  
G18  25286546.156   132881706.211          32.000    25286553.160   103544218.796          34.000  
G23  20418166.408   107298310.578          46.000    20418168.177    83609140.767          48.000  
G24  23168907.900   121753666.735          40.000    23168912.600    94873122.892          40.000  
G25  20970878.393   110202950.896          46.000    20970883.325    85872573.292          44.000  
G28  22553427.809   118519261.784          43.000    22553430.490    92352778.374          43.000  
G32  22140337.597   116348405.363          47.000    22140341.171    90661189.767          44.000  
R 5  21878764.889   116954808.503          47.000                                                  
R 6  19958583.840   106502835.457          40.000                                                  
R 7  22574853.804   120844991.788          49.000                                                  
R 9  20373164.489   108791742.925          50.000                                                  
R15  23088460.379   123378015.024          43.000                                                  
R16  19520769.279   104276714.288          53.000    19520771.995    81102677.295          28.000  
R22  23664259.696   126321406.228          42.000                                                  
C 1  37067454.887   193019982.534          45.000    37067456.317   156844580.308          41.000  
C 2  37740801.611   196526210.244          41.000    37740801.218   159693746.348          39.000  
C 3  36779672.271   191521399.880          46.000    36779671.378   155626853.301          42.000  
C 4  38412327.178   200023043.326          41.000    38412327.017   162535215.339          37.000  
C 5  40178599.419   209220529.007          37.000    40178601.421   170008881.361          35.000  
C 6  36408017.679   189586221.838          45.000    36408014.838   154054366.900          44.000  
C 8  36020733.588   187569479.643          47.000    36020729.425   152415528.124          45.000  
C 9  37562453.216   195597643.488          44.000    37562451.018   158939119.223          43.000  
C13  35804109.263   186441473.202          49.000    35804112.069   151498939.090          46.000  
C14  25067393.132   130532617.370          37.000    25067390.880   106068496.976          37.000  
C16  36838013.523   191825472.289          48.000    36838014.131   155873976.259          43.000  
C23  22902067.815   119257154.656          49.000    22902063.437    96906215.140          48.000  
C24  25062380.799   130506630.639          40.000    25062383.819   106049383.436          40.000  
C25  21672013.253   112852092.206          51.000    21672013.306    91703272.936          49.000  
C32  25007208.726   130219144.423          44.000    25007213.211   105813759.943          41.000  
C33  23485717.583   122296568.751          48.000    23485732.307    99378114.056          46.000  
> 2024  6 26 12 26 54.0000000  0 32                     
G10  20497655.631   107715978.293          50.000    20497658.472    83934578.442          47.000  
G12  21662865.921   113839371.087          45.000    21662867.797    88706128.486          43.000  
G15  24986867.059   131307058.622          35.000    24986873.099   102317302.983          33.000  
G18  25287143.446   132884846.288          32.000    25287150.504   103546665.641          34.000  
G23  20418466.125   107299884.881          46.000    20418467.769    83610367.476          48.000  
G24  23169513.088   121756847.800          40.000    23169518.127    94875601.628          40.000  
G25  20970480.539   110200860.820          45.000    20970485.614    85870944.655          44.000  
G28  22552995.611   118516990.093          43.000    22552998.238    92351008.250          43.000  
G32  22140017.170   116346721.829          47.000    22140020.440    90659877.913          44.000  
R 5  21879149.716   116956865.891          47.000                                                  
R 6  19958331.583   106501488.942          40.000                                                  
R 7  22574274.830   120841891.304          49.000                                                  
R 9  20372601.132   108788733.830          50.000                                                  
R15  23089207.519   123382007.703          44.000                                                  
R16  19520984.405   104277863.549          53.000    19520986.406    81103571.160          28.000  
R22  23664544.135   126322923.757          42.000                                                  
C 1  37067464.501   193020031.408          45.000    37067465.859   156844620.034          41.000  
C 2  37740806.311   196526235.387          41.000    37740806.025   159693766.791          39.000  
C 3  36779681.134   191521447.739          46.000    36779680.669   155626892.193          42.000  
C 4  38412336.595   200023090.165          41.000    38412335.701   162535253.378          38.000  
C 5  40178599.294   209220528.842          37.000    40178601.707   170008881.196          35.000  
C 6  36408033.368   189586303.861          45.000    36408030.598   154054433.555          44.000  
C 8  36020869.697   187570188.671          46.000    36020865.551   152416104.293          45.000  
C 9  37562455.164   195597654.776          44.000    37562453.144   158939128.398          43.000  
C13  35804192.515   186441907.327          49.000    35804195.517   151499291.859          46.000  
C14  25067863.266   130535068.340          37.000    25067861.425   106070488.591          37.000  
C16  36838047.063   191825647.354          48.000    36838047.850   155874118.514          43.000  
C23  22901654.879   119255005.159          48.000    22901650.734    96904468.485          48.000  
C24  25062944.817   130509568.096          40.000    25062947.980   106051770.363          40.000  
C25  21672167.141   112852893.634          51.000    21672167.194    91703924.167          49.000  
C32  25006693.758   130216462.364          44.000    25006698.172   105811580.543          41.000  
C33  23486046.694   122298282.745          48.000    23486061.490    99379506.815          46.000  
> 2024  6 26 12 26 55.0000000  0 32                     
G10  20497437.290   107714831.281          50.000    20497440.256    83933684.656          47.000  
G12  21662810.795   113839081.950          45.000    21662812.528    88705903.201          43.000  
G15  24987394.606   131309831.312          35.000    24987400.717   102319463.529          34.000  
G18  25287739.235   132887977.136          32.000    25287746.883   103549105.222          34.000  
G23  20418763.930   107301450.723          46.000    20418765.896    83611587.626          48.000  
G24  23170116.793   121760019.836          40.000    23170122.047    94878073.340          40.000  
G25  20970081.113   110198762.232          45.000    20970086.313    85869309.414          44.000  
G28  22552561.483   118514709.651          43.000    22552564.592    92349231.271          44.000  
G32  22139695.045   116345029.286          47.000    22139698.762    90658559.055          44.000  
R 5  21879532.774   116958914.447          47.000                                                  
R 6  19958077.521   106500133.587          40.000                                                  
R 7  22573693.765   120838781.562          49.000                                                  
R 9  20372035.899   108785716.137          50.000                                                  
R15  23089953.015   123385991.379          44.000                                                  
R16  19521197.993   104279004.428          52.000    19521201.853    81104458.522          27.000  
R22  23664826.716   126324432.654          42.000                                                  
C 1  37067472.131   193020071.312          45.000    37067473.632   156844652.451          41.000  
C 2  37740809.188   196526251.618          41.000    37740809.080   159693779.968          39.000  
C 3  36779688.532   191521486.624          46.000    36779687.889   155626923.793          42.000  
C 4  38412343.635   200023128.015          41.000    38412342.992   162535284.151          37.000  
C 5  40178597.150   209220519.694          37.000    40178600.116   170008873.758          35.000  
C 6  36408047.359   189586376.936          45.000    36408044.554   154054492.929          44.000  
C 8  36021004.232   187570888.953          47.000    36021000.069   152416673.323          45.000  
C 9  37562455.432   195597657.166          44.000    37562453.609   158939130.326          42.000  
C13  35804274.320   186442332.673          49.000    35804277.161   151499637.476          45.000  
C14  25068332.310   130537510.609          37.000    25068330.451   106072473.112          37.000  
C16  36838079.120   191825813.467          48.000    36838079.692   155874253.489          43.000  
C23  22901240.568   119252847.060          49.000    22901236.226    96902714.860          48.000  
C24  25063507.138   130512496.716          40.000    25063510.408   106054150.092          40.000  
C25  21672319.438   112853686.558          51.000    21672319.546    91704568.482          49.000  
C32  25006177.058   130213771.335          44.000    25006181.418   105809393.880          42.000  
C33  23486374.251   122299988.084          48.000    23486388.993    99380892.537          46.000  
> 2024  6 26 12 26 56.0000000  0 32                     
G10  20497221.950   107713699.881          50.000    20497224.791    83932803.048          47.000  
G12  21662758.796   113838808.524          45.000    21662760.941    88705690.128          43.000  
G15  24987924.994   131312619.103          35.000    24987930.838   102321635.818          34.000  
G18  25288337.776   132891122.780          32.000    25288345.620   103551556.425          34.000  
G23  20419064.916   107303032.194          46.000    20419066.828    83612819.943          48.000  
G24  23170723.143   121763207.005          40.000    23170728.253    94880556.839          41.000  
G25  20969684.832   110196679.220          46.000    20969689.103    85867686.276          44.000  
G28  22552130.286   118512444.585          43.000    22552133.627    92347466.273          43.000  
G32  22139375.779   116343351.850          47.000    22139379.728    90657251.978          44.000  
R 5  21879918.960   116960978.667          47.000                                                  
R 6  19957826.390   106498793.830          40.000                                                  
R 7  22573115.541   120835687.096          49.000                                                  
R 9  20371473.758   108782714.300          50.000                                                  
R15  23090701.619   123389990.568          43.000                                                  
R16  19521414.566   104280161.428          52.000    19521418.497    81105358.367          29.000  
R22  23665112.263   126325957.406          42.000                                                  
C 1  37067482.584   193020126.109          44.000    37067483.960   156844696.971          41.000  
C 2  37740815.281   196526282.702          41.000    37740814.959   159693805.231          39.000  
C 3  36779698.878   191521540.386          45.000    36779698.324   155626967.500          42.000  
C 4  38412353.803   200023180.745          41.000    38412353.052   162535327.005          37.000  
C 5  40178599.098   209220525.413          36.000    40178600.849   170008878.427          35.000  
C 6  36408064.406   189586464.943          45.000    36408061.458   154054564.444          44.000  
C 8  36021141.556   187571604.294          46.000    36021137.410   152417254.588          45.000  
C 9  37562458.845   195597674.487          44.000    37562456.915   158939144.423          43.000  
C13  35804359.001   186442773.122          48.000    35804361.645   151499995.369          46.000  
C14  25068804.570   130539967.955          37.000    25068802.319   106074469.907          37.000  
C16  36838113.983   191825994.513          48.000    36838114.519   155874400.612          43.000  
C23  22900829.241   119250704.245          48.000    22900824.702    96900973.643          48.000  
C24  25064072.549   130515440.370          41.000    25064075.855   106056542.045          40.000  
C25  21672474.774   112854494.848          50.000    21672474.720    91705225.282          49.000  
C32  25005663.466   130211095.229          44.000    25005667.505   105807219.311          41.000  
C33  23486704.703   122301708.638          48.000    23486719.356    99382290.633          46.000  
> 2024  6 26 12 26 57.0000000  0 32                     
G10  20497006.896   107712570.365          50.000    20497009.720    83931922.921          47.000  
G12  21662707.048   113838537.058          45.000    21662708.477    88705478.605          43.000  
G15  24988455.615   131315408.334          35.000    24988461.905   102323809.277          33.000  
G18  25288936.638   132894269.580          32.000    25288944.465   103554008.489          34.000  
G23  20419366.385   107304615.558          46.000    20419368.279    83614053.738          48.000  
G24  23171330.296   121766395.480          40.000    23171335.353    94883041.335          40.000  
G25  20969288.801   110194598.068          46.000    20969293.179    85866064.615          44.000  
G28  22551699.875   118510181.116          43.000    22551701.965    92345702.547          43.000  
G32  22139056.907   116341675.784          47.000    22139060.141    90655945.925          44.000  
R 5  21880305.449   116963044.580          47.000                                                  
R 6  19957575.848   106497455.736          40.000                                                  
R 7  22572537.854   120832593.855          49.000                                                  
R 9  20370911.991   108779714.365          50.000                                                  
R15  23091450.028   123393991.309          43.000                                                  
R16  19521631.585   104281320.545          52.000    19521635.462    81106260.004          27.000  
R22  23665398.310   126327484.030          42.000                                                  
C 1  37067493.306   193020182.194          45.000    37067494.789   156844742.552          41.000  
C 2  37740821.571   196526315.115          41.000    37740821.517   159693831.562          38.000  
C 3  36779709.510   191521595.450          46.000    36779709.063   155627012.223          42.000  
C 4  38412364.113   200023234.777          42.000    38412363.702   162535370.932          37.000  
C 5  40178600.581   209220532.436          37.000    40178602.350   170008884.104          35.000  
C 6  36408081.275   189586554.264          45.000    36408078.737   154054637.027          44.000  
C 8  36021279.201   187572321.126          47.000    36021275.127   152417837.069          45.000  
C 9  37562462.526   195597693.149          44.000    37562460.417   158939159.587          43.000  
C13  35804443.718   186443215.036          49.000    35804446.577   151500354.466          45.000  
C14  25069276.706   130542426.784          38.000    25069274.436   106076467.912          37.000  
C16  36838149.042   191826176.868          48.000    36838149.435   155874548.792          43.000  
C23  22900417.950   119248563.090          49.000    22900413.554    96899233.781          48.000  
C24  25064638.032   130518385.433          41.000    25064641.445   106058935.153          40.000  
C25  21672630.234   112855304.887          51.000    21672630.288    91705883.507          49.000  
C32  25005149.428   130208420.396          44.000    25005153.913   105805045.806          41.000  
C33  23487035.227   122303430.781          48.000    23487050.004    99383690.015          46.000  
> 2024  6 26 12 26 58.0000000  0 32                     
G10  20496789.198   107711426.010          50.000    20496791.860    83931031.218          47.000  
G12  21662652.476   113838250.861          45.000    21662654.316    88705255.604          43.000  
G15  24988983.359   131318182.242          35.000    24988989.524   102325970.711          33.000  
G18  25289532.427   132897400.695          32.000    25289539.217   103556448.335          34.000  
G23  20419664.708   107306184.120          46.000    20419666.227    83615275.983          48.000  
G24  23171933.840   121769568.605          40.000    23171939.433    94885513.932          40.000  
G25  20968890.071   110192502.050          45.000    20968894.521    85864431.350          44.000  
G28  22551266.354   118507902.569          43.000    22551269.285    92343927.047          43.000  
G32  22138735.068   116339984.368          47.000    22138738.641    90654627.957          44.000  
R 5  21880689.204   116965095.219          47.000                                                  
R 6  19957322.054   106496102.296          40.000                                                  
R 7  22571957.271   120829484.860          49.000                                                  
R 9  20370347.438   108776699.401          50.000                                                  
R15  23092195.738   123397976.647          43.000                                                  
R16  19521845.817   104282464.828          52.000    19521850.087    81107149.946          27.000  
R22  23665681.302   126328995.569          42.000                                                  
C 1  37067501.204   193020223.001          45.000    37067502.455   156844775.719          41.000  
C 2  37740825.180   196526332.245          41.000    37740824.823   159693845.498          38.000  
C 3  36779717.051   191521635.255          46.000    36779716.568   155627044.563          42.000  
C 4  38412371.654   200023273.546          41.000    38412371.082   162535402.400          37.000  
C 5  40178598.454   209220524.195          36.000    40178600.545   170008877.448          35.000  
C 6  36408095.534   189586628.362          45.000    36408092.890   154054697.241          44.000  
C 8  36021414.041   187573022.894          46.000    36021409.931   152418407.322          45.000  
C 9  37562463.115   195597696.615          44.000    37562461.168   158939162.404          42.000  
C13  35804525.772   186443641.871          49.000    35804528.524   151500701.304          45.000  
C14  25069746.339   130544870.566          37.000    25069743.820   106078453.672          37.000  
C16  36838181.170   191826343.998          48.000    36838181.492   155874684.597          43.000  
C23  22900003.978   119246407.050          48.000    22899999.529    96897481.834          48.000  
C24  25065200.692   130521315.400          40.000    25065204.141   106061315.984          40.000  
C25  21672782.871   112856100.121          51.000    21672782.961    91706529.703          48.000  
C32  25004632.727   130205730.323          44.000    25004637.409   105802859.895          42.000  
C33  23487363.087   122305137.980          48.000    23487377.990    99385077.245          46.000  
> 2024  6 26 12 26 59.0000000  0 32                     
G10  20496572.500   107710287.711          50.000    20496575.949    83930144.218          47.000  
G12  21662598.976   113837970.783          45.000    21662601.692    88705037.361          43.000  
G15  24989512.300   131320961.652          34.000    24989518.554   102328136.501          34.000  
G18  25290129.217   132900537.065          32.000    25290135.971   103558892.276          34.000  
G23  20419964.175   107307758.733          46.000    20419966.498    83616502.945          48.000  
G24  23172538.671   121772747.235          40.000    23172543.532    94887990.768          41.000  
G25  20968492.343   110190412.033          46.000    20968496.953    85862802.747          44.000  
G28  22550833.656   118505629.783          43.000    22550837.051    92342156.054          43.000  
G32  22138414.140   116338298.451          47.000    22138417.624    90653314.266          44.000  
R 5  21881073.852   116967151.778          47.000                                                  
R 6  19957069.547   106494754.753          40.000                                                  
R 7  22571377.118   120826381.354          49.000                                                  
R 9  20369783.884   108773690.592          50.000                                                  
R15  23092942.449   123401967.771          43.000                                                  
R16  19522061.174   104283615.506          52.000    19522065.838    81108044.860          28.000  
R22  23665965.455   126330513.220          42.000                                                  
C 1  37067510.120   193020269.197          45.000    37067511.335   156844813.242          41.000  
C 2  37740829.326   196526354.771          41.000    37740829.147   159693863.796          39.000  
C 3  36779725.664   191521680.450          46.000    36779725.163   155627081.300          43.000  
C 4  38412380.052   200023317.695          41.000    38412379.570   162535438.300          37.000  
C 5  40178597.490   209220521.386          36.000    40178599.938   170008875.135          35.000  
C 6  36408111.009   189586707.890          45.000    36408107.953   154054761.861          44.000  
C 8  36021549.827   187573730.259          47.000    36021545.771   152418982.097          45.000  
C 9  37562464.867   195597705.519          44.000    37562462.919   158939169.641          43.000  
C13  35804608.846   186444074.291          49.000    35804611.579   151501052.683          46.000  
C14  25070216.634   130547319.921          37.000    25070214.311   106080443.970          37.000  
C16  36838214.246   191826516.548          48.000    36838214.657   155874824.815          43.000  
C23  22899591.150   119244256.799          49.000    22899586.576    96895734.572          48.000  
C24  25065764.728   130524250.865          41.000    25065767.694   106063701.283          40.000  
C25  21672936.849   112856901.221          51.000    21672936.813    91707180.660          49.000  
C32  25004117.278   130203045.671          44.000    25004121.620   105800678.407          41.000  
C33  23487692.253   122306850.884          48.000    23487706.959    99386469.129          46.000  
> 2024  6 26 12 27  0.0000000  0 32                     
G10  20496358.769   107709164.633          50.000    20496362.075    83929269.099          47.000  
G12  21662548.657   113837706.031          45.000    21662550.997    88704831.086          43.000  
G15  24990043.885   131323755.848          34.000    24990049.800   102330313.822          33.000  
G18  25290728.901   132903687.953          33.000    25290736.227   103561347.515          34.000  
G23  20420266.840   107309348.600          46.000    20420268.824    83617741.816          49.000  
G24  23173146.289   121775940.604          40.000    23173152.133    94890479.101          40.000  
G25  20968097.330   110188337.222          46.000    20968102.226    85861186.026          44.000  
G28  22550403.924   118503371.998          43.000    22550406.854    92340396.735          43.000  
G32  22138095.982   116336627.277          47.000    22138099.752    90652012.050          44.000  
R 5  21881461.414   116969223.640          47.000                                                  
R 6  19956820.078   106493422.458          40.000                                                  
R 7  22570800.270   120823292.743          49.000                                                  
R 9  20369223.315   108770697.282          50.000                                                  
R15  23093692.394   123405974.023          43.000                                                  
R16  19522279.498   104284781.919          52.000    19522283.286    81108952.189          29.000  
R22  23666252.610   126332046.340          42.000                                                  
C 1  37067521.860   193020329.935          45.000    37067523.165   156844862.594          41.000  
C 2  37740836.492   196526391.843          41.000    37740836.188   159693893.924          39.000  
C 3  36779737.118   191521740.176          46.000    36779736.617   155627129.832          43.000  
C 4  38412391.042   200023376.359          42.000    38412390.792   162535485.984          37.000  
C 5  40178600.206   209220533.078          37.000    40178602.135   170008884.693          35.000  
C 6  36408129.235   189586802.003          45.000    36408126.144   154054838.329          44.000  
C 8  36021688.598   187574452.351          47.000    36021684.399   152419568.866          45.000  
C 9  37562469.244   195597729.023          44.000    37562467.458   158939188.730          43.000  
C13  35804694.635   186444521.425          49.000    35804697.494   151501416.009          46.000  
C14  25070689.752   130549784.025          37.000    25070687.679   106082446.268          38.000  
C16  36838250.163   191826703.655          48.000    36838250.645   155874976.852          43.000  
C23  22899181.128   119242121.451          49.000    22899176.499    96893999.429          48.000  
C24  25066331.140   130527201.021          41.000    25066334.428   106066098.518          40.000  
C25  21673093.632   112857717.325          51.000    21673093.560    91707843.806          49.000  
C32  25003604.365   130200375.528          44.000    25003608.832   105798508.702          41.000  
C33  23488023.937   122308578.633          48.000    23488038.661    99387873.062          46.000  
> 2024  6 26 12 27  1.0000000  0 32                     
G10  20496142.697   107708029.221          50.000    20496145.520    83928384.358          47.000  
G12  21662496.140   113837429.028          45.000    21662497.998    88704615.221          43.000  
G15  24990573.362   131326537.165          34.000    24990578.687   102332481.091          33.000  
G18  25291326.030   132906825.641          32.000    25291333.142   103563792.467          34.000  
G23  20420567.165   107310926.121          46.000    20420568.773    83618971.047          49.000  
G24  23173751.567   121779121.050          40.000    23173756.481    94892957.377          40.000  
G25  20967700.227   110186250.025          46.000    20967705.212    85859559.641          44.000  
G28  22549972.101   118501101.586          43.000    22549974.067    92338627.585          43.000  
G32  22137775.626   116334943.211          47.000    22137779.307    90650699.794          44.000  
R 5  21881846.813   116971282.702          47.000                                                  
R 6  19956567.928   106492077.373          40.000                                                  
R 7  22570221.099   120820190.893          49.000                                                  
R 9  20368660.405   108767691.402          50.000                                                  
R15  23094440.141   123409967.355          44.000                                                  
R16  19522495.552   104285935.995          52.000    19522499.269    81109849.722          28.000  
R22  23666537.621   126333566.877          42.000                                                  
C 1  37067531.081   193020377.843          45.000    37067532.403   156844901.538          41.000  
C 2  37740841.066   196526416.064          41.000    37740840.816   159693913.608          39.000  
C 3  36779746.195   191521787.067          46.000    36779745.838   155627167.915          42.000  
C 4  38412399.673   200023422.241          41.000    38412399.798   162535523.236          37.000  
C 5  40178599.795   209220531.927          36.000    40178602.046   170008883.726          35.000  
C 6  36408144.745   189586883.307          45.000    36408141.743   154054904.388          44.000  
C 8  36021824.796   187575161.798          46.000    36021820.668   152420145.345          45.000  
C 9  37562471.407   195597739.732          44.000    37562469.548   158939197.430          43.000  
C13  35804778.012   186444955.919          49.000    35804780.960   151501769.083          46.000  
C14  25071160.101   130552235.530          37.000    25071158.296   106084438.311          37.000  
C16  36838283.560   191826877.970          48.000    36838284.060   155875118.485          43.000  
C23  22898768.335   119239973.663          49.000    22898764.047    96892254.176          48.000  
C24  25066895.337   130530138.463          41.000    25066898.535   106068485.431          39.000  
C25  21673247.823   112858521.054          51.000    21673247.966    91708496.909          49.000  
C32  25003089.094   130197692.600          44.000    25003093.704   105796328.593          41.000  
C33  23488353.192   122310293.872          48.000    23488367.970    99389266.829          46.000  
> 2024  6 26 12 27  2.0000000  0 32                     
G10  20495925.320   107706886.550          50.000    20495928.429    83927493.988          47.000  
G12  21662442.121   113837144.847          45.000    21662443.551    88704393.768          43.000  
G15  24991101.124   131329310.744          34.000    24991106.735   102334642.303          33.000  
G18  25291921.676   132909955.277          32.000    25291928.734   103566231.209          34.000  
G23  20420865.953   107312496.409          46.000    20420867.811    83620194.648          48.000  
G24  23174355.236   121782293.735          40.000    23174360.615    94895429.585          40.000  
G25  20967301.515   110184155.557          46.000    20967306.697    85857927.574          44.000  
G28  22549538.438   118498823.662          43.000    22549541.404    92336852.581          43.000  
G32  22137453.555   116333251.379          47.000    22137457.468    90649381.474          44.000  
R 5  21882230.657   116973334.159          47.000                                                  
R 6  19956314.420   106490724.670          40.000                                                  
R 7  22569639.927   120817080.999          49.000                                                  
R 9  20368096.119   108764678.161          50.000                                                  
R15  23095186.280   123413952.959          44.000                                                  
R16  19522710.195   104287082.927          52.000    19522714.680    81110741.785          29.000  
R22  23666821.220   126335080.052          42.000                                                  
C 1  37067538.764   193020417.999          45.000    37067540.087   156844934.154          41.000  
C 2  37740844.086   196526432.519          41.000    37740843.979   159693926.989          38.000  
C 3  36779753.843   191521826.200          46.000    36779753.218   155627199.735          42.000  
C 4  38412407.017   200023460.342          41.000    38412406.820   162535554.205          37.000  
C 5  40178597.972   209220523.026          36.000    40178600.313   170008876.539          35.000  
C 6  36408158.844   189586956.906          45.000    36408155.860   154054964.207          44.000  
C 8  36021959.546   187575863.705          46.000    36021955.383   152420715.704          45.000  
C 9  37562472.086   195597742.762          44.000    37562470.156   158939199.896          43.000  
C13  35804860.120   186445382.896          48.000    35804862.943   151502116.025          45.000  
C14  25071629.448   130554679.457          38.000    25071627.769   106086424.235          37.000  
C16  36838315.510   191827044.553          48.000    36838316.171   155875253.846          43.000  
C23  22898354.578   119237818.498          49.000    22898350.129    96890502.923          48.000  
C24  25067458.014   130533068.279          41.000    25067461.409   106070866.153          40.000  
C25  21673400.907   112859317.492          51.000    21673400.800    91709144.068          49.000  
C32  25002572.679   130195001.914          44.000    25002576.914   105794142.214          41.000  
C33  23488681.196   122312001.670          48.000    23488696.063    99390654.558          46.000  
> 2024  6 26 12 27  3.0000000  0 32                     
G10  20495710.356   107705757.104          50.000    20495713.465    83926613.884          47.000  
G12  21662390.337   113836874.006          45.000    21662392.553    88704182.716          43.000  
G15  24991631.441   131332097.059          34.000    24991637.713   102336813.444          33.000  
G18  25292519.520   132913097.441          32.000    25292526.489   103568679.632          34.000  
G23  20421167.332   107314079.946          46.000    20421169.047    83621428.568          48.000  
G24  23174961.550   121785479.134          40.000    23174967.250    94897911.708          40.000  
G25  20966905.627   110182074.267          45.000    20966910.219    85856305.799          44.000  
G28  22549107.615   118496558.699          43.000    22549110.385    92335087.682          43.000  
G32  22137133.914   116331572.267          47.000    22137138.059    90648073.079          44.000  
R 5  21882616.860   116975398.875          47.000                                                  
R 6  19956063.468   106489385.166          40.000                                                  
R 7  22569061.274   120813983.938          49.000                                                  
R 9  20367534.264   108761678.399          50.000                                                  
R15  23095934.348   123417951.659          44.000                                                  
R16  19522927.393   104288243.532          52.000    19522932.503    81111644.506          29.000  
R22  23667107.018   126336606.625          42.000                                                  
C 1  37067548.878   193020470.668          45.000    37067550.236   156844976.963          41.000  
C 2  37740849.625   196526461.527          41.000    37740849.411   159693950.525          38.000  
C 3  36779763.743   191521877.859          46.000    36779763.242   155627241.715          42.000  
C 4  38412416.988   200023510.946          41.000    38412416.612   162535595.332          36.000  
C 5  40178598.848   209220526.690          36.000    40178600.956   170008879.459          35.000  
C 6  36408175.462   189587043.075          45.000    36408172.407   154055034.217          44.000  
C 8  36022096.852   187576578.340          46.000    36022092.653   152421296.413          45.000  
C 9  37562475.070   195597758.365          44.000    37562473.086   158939212.556          42.000  
C13  35804944.551   186445822.580          48.000    35804947.428   151502473.316          45.000  
C14  25072101.387   130557136.146          38.000    25072099.261   106088420.451          37.000  
C16  36838349.943   191827223.698          48.000    36838350.640   155875399.430          43.000  
C23  22897943.251   119235676.241          48.000    22897938.676    96888762.171          48.000  
C24  25068023.033   130536010.786          40.000    25068026.285   106073257.175          39.000  
C25  21673556.404   112860126.934          50.000    21673556.207    91709801.818          48.000  
C32  25002058.194   130192323.780          44.000    25002062.554   105791966.000          41.000  
C33  23489011.594   122313722.315          48.000    23489026.425    99392052.725          45.000  
> 2024  6 26 12 27  4.0000000  0 32                     
G10  20495495.892   107704629.630          50.000    20495499.055    83925735.336          47.000  
G12  21662339.285   113836605.217          45.000    21662341.179    88703973.274          43.000  
G15  24992161.901   131334884.882          34.000    24992168.012   102338985.771          34.000  
G18  25293117.721   132916240.725          33.000    25293124.851   103571128.962          34.000  
G23  20421469.211   107315665.464          46.000    20421470.748    83622664.043          48.000  
G24  23175567.846   121788665.931          40.000    23175573.260    94900394.942          40.000  
G25  20966509.828   110179994.914          46.000    20966513.992    85854685.523          44.000  
G28  22548676.936   118494295.453          43.000    22548679.313    92333324.097          43.000  
G32  22136814.987   116329894.575          47.000    22136818.204    90646765.808          44.000  
R 5  21883003.510   116977465.371          47.000                                                  
R 6  19955812.801   106488047.391          40.000                                                  
R 7  22568483.212   120810888.213          49.000                                                  
R 9  20366973.087   108758680.635          50.000                                                  
R15  23096682.917   123421951.973          44.000                                                  
R16  19523145.091   104289406.354          52.000    19523150.487    81112548.923          29.000  
R22  23667393.315   126338135.201          42.000                                                  
C 1  37067559.207   193020524.720          45.000    37067560.708   156845020.890          41.000  
C 2  37740855.754   196526491.902          41.000    37740855.236   159693975.245          38.000  
C 3  36779773.946   191521930.894          46.000    36779773.481   155627284.796          42.000  
C 4  38412427.048   200023562.957          42.000    38412426.655   162535637.569          37.000  
C 5  40178600.009   209220531.709          37.000    40178602.010   170008883.535          34.000  
C 6  36408191.973   189587130.636          45.000    36408189.275   154055105.373          44.000  
C 8  36022234.193   187577294.544          47.000    36022230.280   152421878.378          45.000  
C 9  37562478.429   195597775.387          44.000    37562476.374   158939226.388          43.000  
C13  35805029.071   186446263.835          49.000    35805032.109   151502831.850          46.000  
C14  25072573.379   130559594.393          37.000    25072571.610   106090418.024          37.000  
C16  36838384.591   191827404.233          48.000    36838385.163   155875546.129          43.000  
C23  22897532.085   119233535.732          49.000    22897527.689    96887022.838          48.000  
C24  25068588.552   130538954.777          41.000    25068591.643   106075649.399          39.000  
C25  21673712.025   112860938.209          51.000    21673712.007    91710461.047          49.000  
C32  25001543.906   130189647.011          44.000    25001548.606   105789790.898          41.000  
C33  23489342.314   122315444.634          48.000    23489357.199    99393452.248          46.000  
> 2024  6 26 12 27  5.0000000  0 32                     
G10  20495279.319   107703491.452          50.000    20495282.571    83924848.432          47.000  
G12  21662286.161   113836325.799          45.000    21662288.269    88703755.543          43.000  
G15  24992690.180   131337661.457          35.000    24992696.506   102341149.336          34.000  
G18  25293713.635   132919372.518          32.000    25293721.462   103573569.327          34.000  
G23  20421768.660   107317240.280          46.000    20421770.537    83623891.154          48.000  
G24  23176172.033   121791841.506          40.000    23176177.590    94902869.416          40.000  
G25  20966112.028   110177904.824          45.000    20966117.264    85853056.882          44.000  
G28  22548244.149   118492021.229          43.000    22548246.632    92331551.979          43.000  
G32  22136493.470   116328205.677          47.000    22136496.776    90645449.774          44.000  
R 5  21883388.070   116979520.771          47.000                                                  
R 6  19955559.776   106486698.484          40.000                                                  
R 7  22567902.647   120807780.937          49.000                                                  
R 9  20366409.641   108755671.996          50.000                                                  
R15  23097429.414   123425941.038          44.000                                                  
R16  19523360.788   104290558.557          52.000    19523365.345    81113445.080          28.000  
R22  23667677.432   126339652.829          42.000                                                  
C 1  37067567.623   193020567.569          45.000    37067568.695   156845055.704          41.000  
C 2  37740859.096   196526511.085          41.000    37740858.953   159693990.815          39.000  
C 3  36779782.005   191521972.740          46.000    36779781.433   155627318.809          42.000  
C 4  38412434.749   200023603.727          41.000    38412434.499   162535670.731          37.000  
C 5  40178598.812   209220525.521          37.000    40178600.724   170008878.505          35.000  
C 6  36408206.787   189587207.058          45.000    36408204.035   154055167.486          44.000  
C 8  36022369.712   187577999.754          46.000    36022365.709   152422451.426          45.000  
C 9  37562479.233   195597781.261          44.000    37562477.518   158939231.178          42.000  
C13  35805111.894   186446694.077          49.000    35805114.735   151503181.469          46.000  
C14  25073043.174   130562041.693          37.000    25073041.351   106092406.622          37.000  
C16  36838417.095   191827573.619          48.000    36838417.703   155875683.783          43.000  
C23  22897119.132   119231384.423          49.000    22897114.521    96885274.716          48.000  
C24  25069151.730   130541887.721          40.000    25069154.910   106078032.666          40.000  
C25  21673865.806   112861738.762          50.000    21673865.734    91711111.555          48.000  
C32  25001028.063   130186959.084          44.000    25001032.423   105787606.742          41.000  
C33  23489671.032   122317156.082          48.000    23489685.899    99394842.942          46.000  
> 2024  6 26 12 27  6.0000000  0 32                     
G10  20495064.855   107702364.148          50.000    20495068.232    83923970.016          47.000  
G12  21662235.073   113836057.349          45.000    21662237.700    88703546.378          43.000  
G15  24993220.640   131340448.455          34.000    24993226.019   102343321.059          34.000  
G18  25294311.158   132922514.447          32.000    25294318.663   103576017.572          34.000  
G23  20422070.397   107318825.997          46.000    20422071.969    83625126.782          48.000  
G24  23176777.918   121795027.422          40.000    23176783.190    94905351.927          40.000  
G25  20965716.443   110175825.576          45.000    20965721.125    85851436.703          44.000  
G28  22547813.183   118489757.631          43.000    22547815.578    92329788.143          43.000  
G32  22136173.901   116326527.122          47.000    22136177.832    90644141.784          44.000  
R 5  21883774.577   116981587.033          47.000                                                  
R 6  19955309.163   106485360.387          40.000                                                  
R 7  22567323.869   120804684.070          49.000                                                  
R 9  20365848.321   108752674.401          50.000                                                  
R15  23098178.126   123429940.860          44.000                                                  
R16  19523578.594   104291722.055          52.000    19523583.222    81114349.985          27.000  
R22  23667963.891   126341181.504          41.000                                                  
C 1  37067577.576   193020620.622          44.000    37067579.166   156845098.825          41.000  
C 2  37740864.760   196526540.456          41.000    37740864.421   159694014.687          38.000  
C 3  36779792.011   191522024.783          46.000    36779791.529   155627361.082          42.000  
C 4  38412444.595   200023654.723          41.000    38412444.381   162535712.163          37.000  
C 5  40178599.813   209220529.545          37.000    40178601.421   170008881.789          36.000  
C 6  36408223.566   189587293.727          45.000    36408220.707   154055237.907          44.000  
C 8  36022507.321   187578715.389          46.000    36022503.104   152423032.938          45.000  
C 9  37562482.450   195597797.405          44.000    37562480.609   158939244.305          42.000  
C13  35805196.450   186447134.704          48.000    35805199.417   151503539.512          46.000  
C14  25073514.809   130564499.388          37.000    25073513.397   106094403.684          37.000  
C16  36838451.636   191827753.235          48.000    36838452.136   155875829.722          43.000  
C23  22896708.108   119229243.689          48.000    22896703.480    96883535.200          48.000  
C24  25069716.820   130544830.997          40.000    25069720.143   106080424.328          40.000  
C25  21674021.695   112862549.983          50.000    21674021.534    91711770.749          48.000  
C32  25000513.739   130184281.367          44.000    25000517.992   105785430.887          42.000  
C33  23490001.842   122318878.053          48.000    23490016.441    99396242.184          46.000  
> 2024  6 26 12 27  7.0000000  0 32                     
G10  20494850.713   107701238.585          50.000    20494853.572    83923092.946          47.000  
G12  21662184.539   113835790.731          45.000    21662186.273    88703338.612          42.000  
G15  24993751.261   131343236.698          34.000    24993757.158   102345493.672          34.000  
G18  25294909.413   132925657.297          32.000    25294916.917   103578466.571          34.000  
G23  20422372.669   107320413.466          46.000    20422374.259    83626363.771          48.000  
G24  23177384.607   121798214.561          40.000    23177390.164    94907835.422          40.000  
G25  20965321.270   110173748.028          46.000    20965326.291    85849817.822          44.000  
G28  22547383.165   118487495.488          43.000    22547385.256    92328025.439          43.000  
G32  22135855.028   116324849.792          47.000    22135858.762    90642834.810          44.000  
R 5  21884161.566   116983654.839          47.000                                                  
R 6  19955058.710   106484023.788          40.000                                                  
R 7  22566745.771   120801588.339          49.000                                                  
R 9  20365287.341   108749678.608          50.000                                                  
R15  23098926.838   123433942.090          44.000                                                  
R16  19523796.792   104292887.559          52.000    19523800.616    81115256.494          28.000  
R22  23668250.438   126342711.935          41.000                                                  
C 1  37067587.976   193020674.814          45.000    37067589.352   156845142.842          41.000  
C 2  37740870.639   196526570.996          41.000    37740870.586   159694039.501          39.000  
C 3  36779802.215   191522077.960          46.000    36779801.768   155627404.293          42.000  
C 4  38412454.441   200023706.862          41.000    38412454.352   162535754.516          37.000  
C 5  40178600.366   209220534.715          37.000    40178602.529   170008885.976          35.000  
C 6  36408240.595   189587381.562          45.000    36408237.646   154055309.275          44.000  
C 8  36022644.948   187579432.355          47.000    36022640.874   152423615.537          45.000  
C 9  37562485.595   195597814.761          44.000    37562483.915   158939258.402          43.000  
C13  35805281.257   186447576.673          49.000    35805284.384   151503898.644          46.000  
C14  25073987.570   130566958.459          38.000    25073985.765   106096401.873          38.000  
C16  36838486.391   191827934.026          48.000    36838487.017   155875976.632          43.000  
C23  22896297.228   119227104.494          49.000    22896292.707    96881796.924          48.000  
C24  25070282.160   130547775.561          40.000    25070285.466   106082817.013          40.000  
C25  21674177.638   112863362.819          51.000    21674177.620    91712431.244          49.000  
C32  24999999.665   130181604.801          44.000    25000004.007   105783255.955          41.000  
C33  23490332.758   122320601.474          48.000    23490347.446    99397642.606          46.000  
> 2024  6 26 12 27  8.0000000  0 32                     
G10  20494634.498   107700102.971          50.000    20494637.732    83922208.068          47.000  
G12  21662131.826   113835514.133          45.000    21662133.363    88703123.097          42.000  
G15  24994279.862   131346014.353          34.000    24994285.580   102347658.102          33.000  
G18  25295505.523   132928789.263          32.000    25295513.350   103580907.124          34.000  
G23  20422672.601   107321990.890          46.000    20422674.280    83627592.942          48.000  
G24  23177989.170   121801391.105          40.000    23177994.513    94910310.623          40.000  
G25  20964923.827   110171660.406          46.000    20964928.670    85848191.090          44.000  
G28  22546950.556   118485223.054          43.000    22546953.040    92326254.677          43.000  
G32  22135533.796   116323161.891          47.000    22135537.370    90641519.560          44.000  
R 5  21884546.375   116985712.191          47.000                                                  
R 6  19954806.239   106482676.740          40.000                                                  
R 7  22566165.278   120798481.733          49.000                                                  
R 9  20364724.413   108746672.599          50.000                                                  
R15  23099673.477   123437932.736          44.000                                                  
R16  19524013.079   104294043.052          52.000    19524017.010    81116155.246          29.000  
R22  23668535.092   126344232.129          41.000                                                  
C 1  37067596.589   193020718.459          45.000    37067597.643   156845178.307          40.000  
C 2  37740874.749   196526590.973          41.000    37740874.267   159694055.752          38.000  
C 3  36779810.399   191522120.603          46.000    36779809.970   155627438.943          42.000  
C 4  38412462.607   200023748.458          41.000    38412462.286   162535788.307          37.000  
C 5  40178599.544   209220529.356          36.000    40178601.617   170008881.626          35.000  
C 6  36408255.265   189587458.900          45.000    36408252.335   154055372.124          44.000  
C 8  36022780.538   187580138.967          46.000    36022776.500   152424189.712          45.000  
C 9  37562487.006   195597821.603          44.000    37562485.112   158939263.966          43.000  
C13  35805364.187   186448008.271          49.000    35805367.118   151504249.354          45.000  
C14  25074457.775   130569407.140          37.000    25074455.988   106098391.670          37.000  
C16  36838518.931   191828104.302          48.000    36838519.663   155876114.997          43.000  
C23  22895884.543   119224955.127          49.000    22895879.843    96880050.397          48.000  
C24  25070845.784   130550709.706          41.000    25070848.894   106085201.239          40.000  
C25  21674331.883   112864165.582          50.000    21674331.776    91713083.555          49.000  
C32  24999483.679   130178917.700          44.000    24999488.003   105781072.466          41.000  
C33  23490661.637   122322314.667          48.000    23490676.487    99399034.712          46.000  
> 2024  6 26 12 27  9.0000000  0 32                     
G10  20494420.498   107698978.211          50.000    20494423.625    83921331.628          47.000  
G12  21662081.221   113835248.495          45.000    21662083.079    88702916.091          42.000  
G15  24994810.161   131348802.428          34.000    24994816.326   102349830.628          33.000  
G18  25296103.242   132931931.344          32.000    25296111.390   103583355.474          34.000  
G23  20422974.909   107323579.187          46.000    20422976.874    83628830.569          48.000  
G24  23178595.895   121804577.962          40.000    23178601.774    94912793.912          40.000  
G25  20964528.761   110169583.603          45.000    20964532.567    85846572.815          44.000  
G28  22546519.788   118482961.202          43.000    22546522.540    92324492.225          43.000  
G32  22135214.459   116321484.311          47.000    22135218.623    90640212.357          44.000  
R 5  21884933.240   116987780.355          48.000                                                  
R 6  19954555.590   106481340.476          40.000                                                  
R 7  22565587.018   120795385.533          49.000                                                  
R 9  20364163.558   108743677.599          50.000                                                  
R15  23100422.422   123441934.042          44.000                                                  
R16  19524231.420   104295209.808          52.000    19524236.209    81117062.720          28.000  
R22  23668821.908   126345763.320          41.000                                                  
C 1  37067606.828   193020772.285          44.000    37067607.971   156845222.055          41.000  
C 2  37740880.574   196526621.150          41.000    37740880.056   159694080.245          38.000  
C 3  36779820.727   191522173.422          46.000    36779819.959   155627481.866          42.000  
C 4  38412472.614   200023800.217          41.000    38412472.399   162535830.355          38.000  
C 5  40178600.634   209220534.102          37.000    40178602.511   170008885.510          35.000  
C 6  36408272.098   189587546.459          45.000    36408269.239   154055443.263          44.000  
C 8  36022918.416   187580855.957          46.000    36022914.145   152424772.318          45.000  
C 9  37562490.098   195597838.686          44.000    37562488.507   158939277.852          42.000  
C13  35805449.101   186448450.241          48.000    35805451.995   151504608.491          46.000  
C14  25074929.660   130571866.262          38.000    25074928.356   106100389.868          37.000  
C16  36838553.704   191828284.787          48.000    36838554.276   155876261.654          43.000  
C23  22895473.806   119222816.325          49.000    22895469.106    96878312.437          48.000  
C24  25071411.321   130553654.170          41.000    25071414.413   106087593.851          40.000  
C25  21674488.202   112864978.973          50.000    21674487.898    91713744.502          48.000  
C32  24998969.766   130176240.802          44.000    24998973.930   105778897.260          41.000  
C33  23490992.643   122324038.347          48.000    23491007.385    99400435.341          46.000  
> 2024  6 26 12 27 10.0000000  0 32                     
G10  20494205.444   107697847.706          50.000    20494208.232    83920450.726          47.000  
G12  21662029.561   113834977.191          45.000    21662030.937    88702704.669          42.000  
G15  24995339.477   131351584.191          34.000    24995346.143   102351998.279          33.000  
G18  25296700.121   132935066.887          32.000    25296707.876   103585798.779          34.000  
G23  20423276.109   107325161.747          46.000    20423277.610    83630063.724          48.000  
G24  23179200.976   121807758.550          40.000    23179206.479    94915272.266          41.000  
G25  20964132.408   110167501.007          46.000    20964136.804    85844950.011          44.000  
G28  22546088.555   118480693.343          43.000    22546090.806    92322725.059          43.000  
G32  22134894.139   116319800.475          47.000    22134897.266    90638900.284          44.000  
R 5  21885319.032   116989842.423          47.000                                                  
R 6  19954304.048   106479998.127          40.000                                                  
R 7  22565007.597   120792282.816          49.000                                                  
R 9  20363601.685   108740676.778          50.000                                                  
R15  23101170.115   123445929.146          44.000                                                  
R16  19524448.743   104296370.923          52.000    19524452.693    81117965.773          28.000  
R22  23669107.687   126347288.653          41.000                                                  
C 1  37067615.816   193020819.839          45.000    37067617.066   156845260.694          41.000  
C 2  37740885.310   196526645.040          41.000    37740884.577   159694099.658          38.000  
C 3  36779829.679   191522219.970          46.000    36779828.929   155627519.680          42.000  
C 4  38412481.531   200023845.688          41.000    38412480.994   162535867.323          37.000  
C 5  40178600.009   209220532.645          37.000    40178602.243   170008884.305          35.000  
C 6  36408287.662   189587627.769          45.000    36408284.839   154055509.343          44.000  
C 8  36023054.953   187581566.878          46.000    36023050.700   152425350.004          45.000  
C 9  37562492.653   195597849.561          44.000    37562490.634   158939286.685          42.000  
C13  35805532.763   186448886.118          49.000    35805535.765   151504962.675          45.000  
C14  25075401.403   130574319.270          37.000    25075399.383   106102383.159          37.000  
C16  36838587.101   191828459.027          48.000    36838587.708   155876403.238          43.000  
C23  22895061.800   119220671.625          48.000    22895057.279    96876569.696          48.000  
C24  25071975.875   130556592.477          40.000    25071978.681   106089981.472          40.000  
C25  21674643.198   112865786.566          50.000    21674643.126    91714400.725          48.000  
C32  24998454.245   130173557.639          44.000    24998458.748   105776716.972          41.000  
C33  23491322.470   122325756.081          48.000    23491337.337    99401831.132          46.000  
> 2024  6 26 12 27 11.0000000  0 32                     
G10  20493990.355   107696718.017          50.000    20493993.339    83919570.444          47.000  
G12  21661978.224   113834706.793          45.000    21661980.154    88702493.983          43.000  
G15  24995868.865   131354366.318          34.000    24995875.387   102354166.134          33.000  
G18  25297296.821   132938202.492          32.000    25297304.755   103588242.050          34.000  
G23  20423577.256   107326745.143          46.000    20423579.579    83631297.550          48.000  
G24  23179806.414   121810939.424          40.000    23179812.203    94917750.892          41.000  
G25  20963736.145   110165419.207          46.000    20963741.237    85843327.857          44.000  
G28  22545657.071   118478426.032          43.000    22545659.537    92320958.340          43.000  
G32  22134573.533   116318116.937          47.000    22134577.446    90637588.437          44.000  
R 5  21885704.913   116991905.119          47.000                                                  
R 6  19954052.524   106478656.350          40.000                                                  
R 7  22564427.837   120789180.281          49.000                                                  
R 9  20363039.883   108737676.807          50.000                                                  
R15  23101917.952   123449924.713          44.000                                                  
R16  19524666.281   104297533.080          52.000    19524670.820    81118869.680          28.000  
R22  23669393.502   126348814.773          41.000                                                  
C 1  37067624.911   193020867.611          45.000    37067626.430   156845299.500          41.000  
C 2  37740889.938   196526669.177          41.000    37740889.312   159694119.290          38.000  
C 3  36779838.935   191522266.733          46.000    36779837.953   155627557.688          42.000  
C 4  38412490.304   200023891.430          42.000    38412489.857   162535904.502          37.000  
C 5  40178599.544   209220531.432          37.000    40178601.724   170008883.306          35.000  
C 6  36408303.154   189587709.364          45.000    36408300.331   154055575.644          44.000  
C 8  36023191.615   187582278.247          46.000    36023187.255   152425928.040          45.000  
C 9  37562494.601   195597860.718          44.000    37562492.778   158939295.753          43.000  
C13  35805616.533   186449322.444          49.000    35805619.482   151505317.216          46.000  
C14  25075872.573   130576772.731          37.000    25075870.643   106104376.788          38.000  
C16  36838620.570   191828633.531          48.000    36838621.302   155876545.042          43.000  
C23  22894650.187   119218527.542          49.000    22894645.451    96874827.462          48.000  
C24  25072539.982   130559531.178          41.000    25072542.770   106092369.396          40.000  
C25  21674798.426   112866594.854          51.000    21674798.390    91715057.525          49.000  
C32  24997939.438   130170874.702          44.000    24997943.494   105774536.902          41.000  
C33  23491652.403   122327474.359          48.000    23491667.306    99403227.375          46.000  
> 2024  6 26 12 27 12.0000000  0 32                     
G10  20493778.071   107695601.867          50.000    20493781.073    83918700.701          47.000  
G12  21661929.406   113834450.038          45.000    21661931.282    88702293.921          43.000  
G15  24996400.772   131357161.533          34.000    24996407.205   102356344.198          34.000  
G18  25297895.987   132941350.806          33.000    25297903.617   103590695.321          34.000  
G23  20423881.279   107328342.093          46.000    20423883.120    83632541.929          48.000  
G24  23180414.068   121814133.328          40.000    23180419.250    94920239.632          41.000  
G25  20963342.669   110163350.908          46.000    20963347.118    85841716.186          44.000  
G28  22545228.018   118476172.003          43.000    22545230.538    92319201.945          43.000  
G32  22134255.750   116316446.418          47.000    22134259.699    90636286.708          44.000  
R 5  21886093.261   116993981.390          47.000                                                  
R 6  19953803.608   106477328.062          40.000                                                  
R 7  22563850.792   120786090.863          49.000                                                  
R 9  20362480.654   108734690.591          50.000                                                  
R15  23102668.182   123453933.654          44.000                                                  
R16  19524886.552   104298709.232          52.000    19524891.341    81119784.527          29.000  
R22  23669681.694   126350354.647          41.000                                                  
C 1  37067636.454   193020928.244          45.000    37067638.241   156845348.791          41.000  
C 2  37740896.996   196526706.141          41.000    37740896.531   159694149.329          39.000  
C 3  36779850.157   191522326.357          46.000    36779849.264   155627606.116          42.000  
C 4  38412501.490   200023949.981          42.000    38412501.043   162535952.044          38.000  
C 5  40178601.939   209220543.011          37.000    40178604.083   170008892.748          36.000  
C 6  36408321.345   189587803.835          45.000    36408318.540   154055652.402          44.000  
C 8  36023330.565   187583002.628          47.000    36023326.419   152426516.652          46.000  
C 9  37562498.996   195597884.760          44.000    37562497.406   158939315.289          43.000  
C13  35805702.948   186449771.797          48.000    35805705.843   151505682.366          46.000  
C14  25076345.888   130579239.260          38.000    25076344.351   106106381.045          38.000  
C16  36838656.683   191828820.905          48.000    36838657.201   155876697.284          44.000  
C23  22894240.932   119216396.683          49.000    22894236.304    96873095.962          48.000  
C24  25073106.877   130562482.846          40.000    25073109.700   106094767.863          40.000  
C25  21674956.156   112867416.442          51.000    21674956.084    91715725.138          49.000  
C32  24997426.258   130168204.635          44.000    24997430.779   105772367.220          41.000  
C33  23491985.071   122329205.783          48.000    23491999.741    99404634.306          46.000  
> 2024  6 26 12 27 13.0000000  0 32                     
G10  20493563.321   107694473.161          50.000    20493566.055    83917821.199          47.000  
G12  21661877.889   113834180.793          45.000    21661880.033    88702084.124          43.000  
G15  24996930.339   131359943.657          34.000    24996936.754   102358512.096          33.000  
G18  25298492.545   132944485.804          33.000    25298500.032   103593138.199          34.000  
G23  20424182.837   107329926.496          46.000    20424184.195    83633776.517          48.000  
G24  23181019.399   121817314.114          40.000    23181025.188    94922718.161          41.000  
G25  20962946.602   110161270.014          46.000    20962950.891    85840094.699          44.000  
G28  22544796.642   118473905.153          43.000    22544799.734    92317435.580          43.000  
G32  22133935.359   116314762.822          47.000    22133939.129    90634974.838          44.000  
R 5  21886479.428   116996044.691          47.000                                                  
R 6  19953552.548   106475986.780          40.000                                                  
R 7  22563271.425   120782987.994          49.000                                                  
R 9  20361919.102   108731691.602          50.000                                                  
R15  23103415.697   123457929.462          44.000                                                  
R16  19525104.412   104299872.889          52.000    19525109.433    81120689.550          28.000  
R22  23669967.580   126351881.712          41.000                                                  
C 1  37067645.800   193020975.820          45.000    37067647.194   156845387.453          41.000  
C 2  37740901.285   196526730.086          41.000    37740901.124   159694168.779          38.000  
C 3  36779859.038   191522372.933          46.000    36779858.359   155627643.970          42.000  
C 4  38412510.103   200023995.482          41.000    38412509.746   162535989.036          38.000  
C 5  40178601.796   209220541.615          37.000    40178604.173   170008891.573          35.000  
C 6  36408337.195   189587885.311          45.000    36408334.282   154055718.621          44.000  
C 8  36023467.334   187583714.177          46.000    36023463.117   152427094.860          45.000  
C 9  37562501.498   195597895.839          44.000    37562499.443   158939324.293          43.000  
C13  35805786.664   186450208.297          48.000    35805789.666   151506037.053          46.000  
C14  25076817.308   130581692.925          38.000    25076815.432   106108374.875          37.000  
C16  36838690.026   191828995.272          48.000    36838690.848   155876838.986          44.000  
C23  22893829.194   119214253.173          49.000    22893824.727    96871354.180          48.000  
C24  25073670.895   130565421.599          40.000    25073674.093   106097155.853          40.000  
C25  21675111.402   112868225.456          51.000    21675111.420    91716382.540          49.000  
C32  24996910.879   130165521.552          44.000    24996915.454   105770187.010          41.000  
C33  23492314.969   122330924.497          48.000    23492329.872    99406030.902          46.000  
> 2024  6 26 12 27 14.0000000  0 32                     
G10  20493347.017   107693337.087          50.000    20493349.715    83916935.944          47.000  
G12  21661825.086   113833904.277          45.000    21661827.409    88701868.644          43.000  
G15  24997458.315   131362717.884          34.000    24997465.391   102360673.889          33.000  
G18  25299087.351   132947612.623          32.000    25299095.285   103595574.684          34.000  
G23  20424482.893   107331503.548          46.000    20424484.662    83635005.384          48.000  
G24  23181623.157   121820487.004          40.000    23181628.161    94925190.533          40.000  
G25  20962549.320   110159181.711          46.000    20962553.644    85838467.454          44.000  
G28  22544363.819   118471630.671          43.000    22544366.624    92315663.258          43.000  
G32  22133613.377   116313071.327          47.000    22133617.630    90633656.799          44.000  
R 5  21886863.916   116998100.312          47.000                                                  
R 6  19953299.827   106474637.738          40.000                                                  
R 7  22562690.003   120779876.970          49.000                                                  
R 9  20361356.049   108728685.160          50.000                                                  
R15  23104162.033   123461917.462          44.000                                                  
R16  19525320.788   104301029.313          52.000    19525325.719    81121588.974          28.000  
R22  23670252.109   126353401.299          41.000                                                  
C 1  37067653.466   193021015.523          45.000    37067654.717   156845419.705          41.000  
C 2  37740904.662   196526746.158          41.000    37740904.287   159694181.853          39.000  
C 3  36779866.615   191522411.639          46.000    36779865.793   155627675.443          43.000  
C 4  38412517.501   200024033.132          42.000    38412516.858   162536019.630          37.000  
C 5  40178600.188   209220532.290          37.000    40178601.939   170008884.041          35.000  
C 6  36408351.293   189587958.935          45.000    36408348.470   154055778.452          44.000  
C 8  36023602.442   187584418.067          47.000    36023598.207   152427666.824          45.000  
C 9  37562501.891   195597899.104          44.000    37562500.051   158939326.928          43.000  
C13  35805868.915   186450637.117          49.000    35805871.953   151506385.505          46.000  
C14  25077287.174   130584138.981          37.000    25077285.316   106110362.466          37.000  
C16  36838722.137   191829161.809          48.000    36838722.780   155876974.301          43.000  
C23  22893416.259   119212102.169          49.000    22893411.524    96869606.318          48.000  
C24  25074233.465   130568352.630          40.000    25074236.753   106099537.534          40.000  
C25  21675265.504   112869027.074          51.000    21675265.308    91717033.911          49.000  
C32  24996394.572   130162830.590          44.000    24996398.664   105768000.397          42.000  
C33  23492643.705   122332635.657          48.000    23492658.465    99407421.355          46.000  
> 2024  6 26 12 27 15.0000000  0 32                     
G10  20493133.946   107692216.652          50.000    20493136.537    83916062.881          47.000  
G12  21661775.839   113833643.499          45.000    21661777.412    88701665.439          43.000  
G15  24997988.935   131365507.312          35.000    24997996.011   102362847.432          33.000  
G18  25299685.231   132950754.272          33.000    25299693.075   103598022.741          34.000  
G23  20424785.952   107333096.252          46.000    20424787.667    83636246.462          49.000  
G24  23182229.900   121823675.009          40.000    23182234.314    94927674.709          40.000  
G25  20962154.808   110157109.034          45.000    20962159.436    85836852.386          44.000  
G28  22543933.819   118469371.569          43.000    22543936.928    92313902.905          44.000  
G32  22133294.558   116311394.958          47.000    22133298.596    90632350.556          44.000  
R 5  21887251.352   117000171.634          47.000                                                  
R 6  19953049.875   106473304.364          40.000                                                  
R 7  22562111.493   120776781.236          49.000                                                  
R 9  20360795.944   108725694.633          50.000    20360798.911    84564303.306          30.000  
R15  23104911.209   123465921.014          44.000                                                  
R16  19525540.237   104302201.853          52.000    19525545.240    81122500.980          28.000  
R22  23670539.746   126354936.749          41.000                                                  
C 1  37067663.812   193021070.169          45.000    37067665.152   156845464.114          41.000  
C 2  37740910.719   196526777.160          41.000    37740910.201   159694207.033          39.000  
C 3  36779876.889   191522465.267          46.000    36779875.978   155627719.006          42.000  
C 4  38412527.365   200024085.687          41.000    38412527.007   162536062.344          37.000  
C 5  40178601.188   209220537.905          36.000    40178603.047   170008888.608          35.000  
C 6  36408368.287   189588047.547          45.000    36408365.499   154055850.445          44.000  
C 8  36023740.480   187585137.066          46.000    36023736.192   152428251.062          45.000  
C 9  37562505.501   195597917.321          44.000    37562503.481   158939341.754          42.000  
C13  35805954.222   186451081.047          48.000    35805957.278   151506746.237          46.000  
C14  25077759.863   130586600.116          38.000    25077758.130   106112362.350          37.000  
C16  36838757.089   191829343.289          48.000    36838757.518   155877121.757          43.000  
C23  22893006.058   119209966.475          49.000    22893001.394    96867870.889          48.000  
C24  25074799.467   130571298.709          40.000    25074802.612   106101931.474          39.000  
C25  21675422.519   112869844.085          50.000    21675422.215    91717697.797          48.000  
C32  24995880.694   130160154.591          44.000    24995884.751   105765825.915          41.000  
C33  23492975.336   122334362.035          48.000    23492990.007    99408824.179          46.000  
> 2024  6 26 12 27 16.0000000  0 32                     
G10  20492920.983   107691098.029          50.000    20492923.539    83915191.219          47.000  
G12  21661726.431   113833384.610          45.000    21661728.790    88701463.708          43.000  
G15  24998519.967   131368298.040          35.000    24998526.739   102365022.028          33.000  
G18  25300283.253   132953896.999          33.000    25300291.205   103600471.616          34.000  
G23  20425089.475   107334690.781          46.000    20425090.869    83637488.950          49.000  
G24  23182836.678   121826864.282          40.000    23182842.164    94930159.848          40.000  
G25  20961760.653   110155038.123          46.000    20961765.245    85835238.689          44.000  
G28  22543504.194   118467114.000          43.000    22543506.731    92312143.786          43.000  
G32  22132975.756   116309719.881          47.000    22132979.080    90631045.279          44.000  
R 5  21887639.307   117002244.520          48.000                                                  
R 6  19952800.298   106471972.569          40.000                                                  
R 7  22561533.609   120773686.658          49.000                                                  
R 9  20360236.340   108722705.942          50.000    20360238.967    84561978.785          30.000  
R15  23105660.440   123469926.046          44.000                                                  
R16  19525760.187   104303376.439          52.000    19525765.387    81123414.512          28.000  
R22  23670827.652   126356473.991          41.000                                                  
C 1  37067674.426   193021126.001          45.000    37067676.124   156845509.497          41.000  
C 2  37740916.938   196526809.343          41.000    37740916.277   159694233.206          38.000  
C 3  36779887.253   191522520.099          46.000    36779886.503   155627763.578          43.000  
C 4  38412537.907   200024139.457          41.000    38412537.282   162536106.035          38.000  
C 5  40178602.457   209220544.709          37.000    40178604.423   170008894.146          35.000  
C 6  36408385.656   189588137.380          45.000    36408382.707   154055923.441          44.000  
C 8  36023878.733   187585857.469          47.000    36023874.605   152428836.454          45.000  
C 9  37562509.343   195597936.821          44.000    37562507.288   158939357.595          43.000  
C13  35806039.672   186451526.352          49.000    35806042.692   151507108.081          46.000  
C14  25078232.499   130589062.690          37.000    25078230.766   106114363.421          37.000  
C16  36838792.059   191829525.990          48.000    36838792.541   155877270.226          44.000  
C23  22892596.125   119207832.365          49.000    22892591.586    96866136.752          48.000  
C24  25075365.611   130574246.148          40.000    25075368.631   106104326.503          40.000  
C25  21675579.481   112870662.765          51.000    21675579.445    91718363.039          49.000  
C32  24995366.835   130157479.799          44.000    24995371.106   105763652.429          41.000  
C33  23493306.986   122336089.947          48.000    23493321.888    99410228.246          46.000  
> 2024  6 26 12 27 17.0000000  0 32                     
G10  20492705.733   107689967.037          50.000    20492708.521    83914309.938          47.000  
G12  21661675.004   113833113.446          45.000    21661677.274    88701252.398          43.000  
G15  24999048.497   131371075.874          34.000    24999055.823   102367186.617          33.000  
G18  25300878.703   132957026.497          33.000    25300886.672   103602910.198          34.000  
G23  20425390.354   107336272.948          46.000    20425392.570    83638721.791          49.000  
G24  23183440.866   121830040.647          40.000    23183446.066    94932634.928          41.000  
G25  20961364.282   110152954.811          45.000    20961368.696    85833615.313          44.000  
G28  22543071.960   118464843.800          43.000    22543075.105    92310374.789          44.000  
G32  22132654.525   116308031.913          47.000    22132658.045    90629729.995          44.000  
R 5  21888024.724   117004304.586          47.000                                                  
R 6  19952548.452   106470628.003          40.000                                                  
R 7  22560953.044   120770578.824          49.000                                                  
R 9  20359674.306   108719704.683          50.000    20359677.290    84559644.445          29.000  
R15  23106407.561   123473918.142          44.000                                                  
R16  19525977.724   104304538.643          52.000    19525982.406    81124318.451          28.000  
R22  23671113.199   126357998.642          40.000                                                  
C 1  37067682.914   193021169.013          45.000    37067684.451   156845544.426          41.000  
C 2  37740920.601   196526828.730          41.000    37740920.011   159694248.947          39.000  
C 3  36779895.187   191522562.098          46.000    36779894.526   155627797.702          42.000  
C 4  38412546.056   200024180.405          41.000    38412544.966   162536139.291          37.000  
C 5  40178600.831   209220538.725          36.000    40178603.315   170008889.269          36.000  
C 6  36408400.398   189588214.433          45.000    36408397.574   154055986.043          44.000  
C 8  36024014.448   187586565.247          46.000    36024010.553   152429411.586          45.000  
C 9  37562510.647   195597943.541          44.000    37562508.610   158939363.055          43.000  
C13  35806122.781   186451959.031          49.000    35806125.765   151507459.671          46.000  
C14  25078702.973   130591512.671          37.000    25078701.221   106116354.196          37.000  
C16  36838824.670   191829695.897          48.000    36838825.241   155877408.306          44.000  
C23  22892183.958   119205685.808          49.000    22892179.276    96864392.496          48.000  
C24  25075929.164   130577180.881          40.000    25075932.041   106106711.194          40.000  
C25  21675734.387   112871469.079          51.000    21675734.298    91719018.235          49.000  
C32  24994850.688   130154792.181          44.000    24994855.084   105761468.512          42.000  
C33  23493636.312   122337805.331          48.000    23493651.268    99411622.149          46.000  
> 2024  6 26 12 27 18.0000000  0 32                     
G10  20492492.359   107688846.626          50.000    20492495.665    83913436.898          47.000  
G12  21661625.471   113832852.941          45.000    21661626.472    88701049.413          43.000  
G15  24999578.992   131373863.864          34.000    24999586.283   102369359.013          33.000  
G18  25301476.171   132960165.841          33.000    25301484.266   103605356.504          34.000  
G23  20425693.591   107337865.714          46.000    20425695.485    83639962.914          49.000  
G24  23184047.519   121833227.068          40.000    23184052.648    94935117.858          41.000  
G25  20960970.217   110150882.049          46.000    20960974.255    85832000.194          44.000  
G28  22542642.156   118462583.946          43.000    22542644.962    92308613.843          43.000  
G32  22132335.045   116306354.004          47.000    22132338.601    90628422.529          44.000  
R 5  21888412.070   117006375.171          47.000                                                  
R 6  19952298.375   106469293.920          40.000                                                  
R 7  22560374.374   120767481.105          49.000                                                  
R 9  20359114.255   108716714.195          50.000    20359117.436    84557318.511          30.000  
R15  23107156.291   123477920.629          43.000                                                  
R16  19526197.299   104305711.822          52.000    19526202.534    81125230.946          28.000  
R22  23671401.015   126359534.050          41.000                                                  
C 1  37067693.171   193021221.902          45.000    37067694.511   156845587.412          41.000  
C 2  37740926.265   196526858.014          41.000    37740925.533   159694272.728          38.000  
C 3  36779905.212   191522613.999          46.000    36779904.568   155627839.870          43.000  
C 4  38412555.687   200024231.201          41.000    38412554.740   162536180.603          37.000  
C 5  40178601.671   209220542.630          37.000    40178604.226   170008892.426          36.000  
C 6  36408416.980   189588301.419          45.000    36408414.139   154056056.743          44.000  
C 8  36024152.343   187587283.141          47.000    36024148.412   152429994.922          45.000  
C 9  37562513.703   195597960.190          44.000    37562511.791   158939376.587          42.000  
C13  35806207.855   186452401.832          48.000    35806210.750   151507819.488          46.000  
C14  25079175.698   130593972.718          38.000    25079173.535   106118353.188          38.000  
C16  36838859.264   191829875.754          48.000    36838859.854   155877554.452          43.000  
C23  22891773.649   119203549.523          49.000    22891768.985    96862656.597          48.000  
C24  25076494.665   130580125.633          40.000    25076497.792   106109104.050          40.000  
C25  21675891.313   112872285.755          50.000    21675891.099    91719681.859          49.000  
C32  24994336.382   130152114.475          44.000    24994340.831   105759292.683          41.000  
C33  23493967.746   122339530.934          48.000    23493982.720    99413024.340          46.000  
> 2024  6 26 12 27 19.0000000  0 32                     
G10  20492278.199   107687720.640          50.000    20492281.558    83912559.508          47.000  
G12  21661574.688   113832586.974          45.000    21661576.242    88700842.187          43.000  
G15  25000108.666   131376645.724          35.000    25000115.742   102371526.696          33.000  
G18  25302072.514   132963298.787          32.000    25302080.555   103607797.790          34.000  
G23  20425995.703   107339452.916          46.000    20425997.132    83641199.704          49.000  
G24  23184652.886   121836407.417          40.000    23184658.675    94937596.040          40.000  
G25  20960574.578   110148803.682          46.000    20960578.653    85830380.690          44.000  
G28  22542211.227   118460318.246          43.000    22542214.086    92306848.391          43.000  
G32  22132014.760   116304669.998          47.000    22132017.834    90627110.318          44.000  
R 5  21888798.470   117008439.869          48.000                                                  
R 6  19952047.190   106467953.958          40.000                                                  
R 7  22559794.828   120764377.079          49.000                                                  
R 9  20358553.168   108713718.046          50.000    20358556.170    84554988.197          31.000  
R15  23107904.289   123481917.079          44.000                                                  
R16  19526415.962   104306879.589          52.000    19526421.216    81126139.168          29.000  
R22  23671687.581   126361063.759          41.000                                                  
C 1  37067702.052   193021268.712          44.000    37067703.374   156845625.446          41.000  
C 2  37740930.322   196526881.189          41.000    37740930.018   159694291.569          39.000  
C 3  36779913.985   191522659.808          46.000    36779913.431   155627877.070          42.000  
C 4  38412564.050   200024275.928          41.000    38412563.371   162536216.954          37.000  
C 5  40178602.261   209220540.426          36.000    40178603.476   170008890.652          35.000  
C 6  36408432.669   189588382.362          45.000    36408429.792   154056122.502          44.000  
C 8  36024289.113   187587995.132          46.000    36024285.217   152430573.471          45.000  
C 9  37562515.686   195597970.830          44.000    37562513.917   158939385.237          42.000  
C13  35806291.804   186452838.719          48.000    35806294.627   151508174.496          46.000  
C14  25079646.779   130596426.880          38.000    25079644.902   106120347.425          37.000  
C16  36838892.661   191830049.526          48.000    36838893.215   155877695.651          43.000  
C23  22891362.304   119201407.548          49.000    22891357.712    96860916.064          48.000  
C24  25077059.505   130583064.440          40.000    25077061.899   106111492.087          39.000  
C25  21676047.059   112873096.803          50.000    21676046.899    91720340.896          49.000  
C32  24993820.986   130149430.692          44.000    24993825.542   105757111.887          41.000  
C33  23494297.984   122341250.767          48.000    23494312.869    99414421.838          46.000  
> 2024  6 26 12 27 20.0000000  0 32                     
G10  20492064.235   107686596.251          50.000    20492067.505    83911683.349          47.000  
G12  21661524.351   113832322.671          45.000    21661526.459    88700636.221          43.000  
G15  25000638.268   131379428.708          35.000    25000645.505   102373695.278          33.000  
G18  25302668.929   132966432.537          33.000    25302677.023   103610239.676          34.000  
G23  20426297.922   107341041.729          46.000    20426299.834    83642437.722          49.000  
G24  23185258.288   121839588.779          40.000    23185263.667    94940075.017          41.000  
G25  20960179.244   110146726.870          46.000    20960183.890    85828762.402          44.000  
G28  22541780.190   118458053.856          43.000    22541782.889    92305083.935          43.000  
G32  22131694.547   116302987.065          47.000    22131698.103    90625798.938          44.000  
R 5  21889184.924   117010505.967          47.000                                                  
R 6  19951796.184   106466615.310          40.000                                                  
R 7  22559214.907   120761274.018          49.000                                                  
R 9  20357992.313   108710723.505          50.000    20357994.564    84552659.117          30.000  
R15  23108652.625   123485914.765          44.000                                                  
R16  19526634.840   104308049.215          52.000    19526638.825    81127048.900          28.000  
R22  23671974.468   126362595.057          41.000                                                  
C 1  37067711.308   193021316.504          45.000    37067712.576   156845664.291          41.000  
C 2  37740935.146   196526905.364          41.000    37740934.610   159694311.228          39.000  
C 3  36779922.866   191522706.591          46.000    36779922.491   155627915.097          43.000  
C 4  38412573.074   200024321.688          41.000    38412572.412   162536254.086          37.000  
C 5  40178601.582   209220539.214          36.000    40178603.315   170008889.645          35.000  
C 6  36408448.394   189588464.294          45.000    36408445.374   154056189.093          45.000  
C 8  36024426.007   187588708.292          47.000    36024422.094   152431152.974          45.000  
C 9  37562518.188   195597982.516          44.000    37562516.026   158939394.712          43.000  
C13  35806375.985   186453276.801          49.000    35806378.790   151508530.462          46.000  
C14  25080118.449   130598882.270          38.000    25080116.377   106122342.592          38.000  
C16  36838926.219   191830224.329          48.000    36838926.737   155877837.691          43.000  
C23  22890951.352   119199266.940          49.000    22890946.671    96859176.642          48.000  
C24  25077623.934   130586004.368          40.000    25077626.668   106113881.013          40.000  
C25  21676203.128   112873909.315          51.000    21676202.913    91721001.132          49.000  
C32  24993305.983   130146747.923          44.000    24993310.218   105754931.934          41.000  
C33  23494628.632   122342971.901          48.000    23494643.428    99415820.393          46.000  
> 2024  6 26 12 27 21.0000000  0 32                     
G10  20491852.773   107685485.383          50.000    20491855.918    83910817.729          47.000  
G12  21661476.694   113832071.966          45.000    21661478.642    88700440.880          43.000  
G15  25001170.336   131382224.730          34.000    25001177.573   102375873.983          33.000  
G18  25303267.434   132969579.070          33.000    25303275.635   103612691.510          34.000  
G23  20426602.749   107342644.073          46.000    20426604.608    83643686.331          49.000  
G24  23185866.157   121842783.134          40.000    23185871.214    94942564.118          41.000  
G25  20959786.501   110144663.548          46.000    20959791.343    85827154.623          44.000  
G28  22541352.138   118455802.752          43.000    22541354.300    92303329.826          43.000  
G32  22131376.711   116301317.132          47.000    22131380.213    90624497.709          44.000  
R 5  21889574.004   117012585.623          48.000                                                  
R 6  19951547.894   106465290.172          40.000                                                  
R 7  22558637.701   120758184.098          49.000                                                  
R 9  20357434.209   108707742.747          50.000    20357436.622    84550340.751          30.000  
R15  23109403.428   123489925.857          44.000                                                  
R16  19526856.469   104309232.825          52.000    19526861.062    81127969.539          29.000  
R22  23672263.910   126364140.052          41.000                                                  
C 1  37067722.798   193021377.125          45.000    37067724.120   156845713.539          41.000  
C 2  37740942.187   196526942.386          41.000    37740941.812   159694341.269          38.000  
C 3  36779934.499   191522766.209          46.000    36779933.891   155627963.554          42.000  
C 4  38412584.063   200024380.206          41.000    38412583.598   162536301.673          37.000  
C 5  40178603.779   209220550.851          36.000    40178605.799   170008899.127          35.000  
C 6  36408466.316   189588559.105          45.000    36408463.654   154056266.123          44.000  
C 8  36024565.618   187589434.494          47.000    36024561.473   152431743.077          45.000  
C 9  37562522.798   195598007.061          44.000    37562520.797   158939414.685          43.000  
C13  35806462.560   186453727.878          49.000    35806465.348   151508897.006          45.000  
C14  25080592.407   130601350.662          38.000    25080590.424   106124348.387          37.000  
C16  36838962.225   191830411.962          48.000    36838962.815   155877990.172          43.000  
C23  22890542.706   119197139.529          49.000    22890538.149    96857447.952          48.000  
C24  25078190.811   130588957.234          40.000    25078193.705   106116280.448          40.000  
C25  21676361.626   112874735.108          51.000    21676361.519    91721672.151          49.000  
C32  24992793.088   130144077.981          44.000    24992797.359   105752762.367          41.000  
C33  23494961.657   122344706.168          48.000    23494976.470    99417229.634          46.000  
> 2024  6 26 12 27 22.0000000  0 32                     
G10  20491639.078   107684362.604          50.000    20491642.026    83909942.841          47.000  
G12  21661426.750   113831809.457          45.000    21661428.769    88700236.304          43.000  
G15  25001700.153   131385008.345          34.000    25001706.746   102378043.049          33.000  
G18  25303863.776   132972712.844          32.000    25303871.442   103615133.483          34.000  
G23  20426905.468   107344234.508          46.000    20426907.059    83644925.618          49.000  
G24  23186471.988   121845965.039          40.000    23186476.062    94945043.545          41.000  
G25  20959391.560   110142588.279          46.000    20959396.527    85825537.515          44.000  
G28  22540921.477   118453539.450          43.000    22540923.585    92301566.217          43.000  
G32  22131056.748   116299634.769          47.000    22131060.269    90623186.733          44.000  
R 5  21889960.707   117014652.948          48.000                                                  
R 6  19951297.406   106463952.680          40.000                                                  
R 7  22558058.281   120755081.399          49.000                                                  
R 9  20356873.730   108704749.902          50.000    20356877.196    84548013.002          30.000  
R15  23110151.694   123493924.468          44.000                                                  
R16  19527075.883   104310404.562          52.000    19527080.976    81128880.856          28.000  
R22  23672551.012   126365672.921          41.000                                                  
C 1  37067732.000   193021425.362          45.000    37067733.573   156845752.726          41.000  
C 2  37740946.976   196526966.977          41.000    37740946.743   159694361.279          39.000  
C 3  36779943.594   191522813.449          46.000    36779942.844   155628001.952          42.000  
C 4  38412593.033   200024426.353          41.000    38412592.479   162536339.161          37.000  
C 5  40178603.529   209220550.092          36.000    40178605.727   170008898.499          35.000  
C 6  36408482.238   189588641.578          45.000    36408479.539   154056333.141          44.000  
C 8  36024702.781   187590148.511          47.000    36024698.671   152432323.282          45.000  
C 9  37562525.192   195598019.297          44.000    37562523.263   158939424.601          43.000  
C13  35806546.938   186454166.765          48.000    35806549.743   151509253.633          46.000  
C14  25081064.078   130603806.877          38.000    25081062.363   106126344.286          38.000  
C16  36838995.891   191830587.251          48.000    36838996.409   155878132.606          43.000  
C23  22890131.843   119195000.119          49.000    22890127.376    96855709.511          48.000  
C24  25078755.079   130591897.889          40.000    25078758.527   106118669.962          40.000  
C25  21676517.890   112875548.979          50.000    21676517.837    91722333.495          49.000  
C32  24992277.960   130141395.664          43.000    24992282.195   105750582.778          41.000  
C33  23495292.234   122346428.360          48.000    23495307.351    99418629.056          46.000  
> 2024  6 26 12 27 23.0000000  0 32                     
G10  20491424.131   107683232.481          50.000    20491427.115    83909062.236          47.000  
G12  21661375.341   113831539.672          45.000    21661377.503    88700026.106          42.000  
G15  25002228.379   131387784.084          34.000    25002235.026   102380206.001          32.000  
G18  25304458.636   132975838.548          32.000    25304466.356   103617569.069          34.000  
G23  20427206.704   107345817.626          46.000    20427208.473    83646159.207          48.000  
G24  23187075.640   121849139.076          40.000    23187080.947    94947516.827          40.000  
G25  20958995.296   110140505.634          46.000    20959000.872    85823914.690          44.000  
G28  22540488.957   118451268.548          43.000    22540491.655    92299796.676          43.000  
G32  22130735.035   116297944.530          47.000    22130738.823    90621869.700          44.000  
R 5  21890345.820   117016712.575          48.000                                                  
R 6  19951045.292   106462607.455          40.000                                                  
R 7  22557476.769   120751970.569          49.000                                                  
R 9  20356311.874   108701749.589          50.000    20356315.752    84545679.390          30.000  
R15  23110898.440   123497915.236          44.000                                                  
R16  19527293.885   104311569.055          52.000    19527298.102    81129786.551          28.000  
R22  23672836.845   126367198.314          41.000                                                  
C 1  37067739.845   193021465.707          45.000    37067741.346   156845785.550          41.000  
C 2  37740950.031   196526983.725          41.000    37740949.817   159694374.875          39.000  
C 3  36779951.260   191522852.820          46.000    36779950.456   155628033.942          42.000  
C 4  38412600.181   200024464.645          41.000    38412599.681   162536370.289          37.000  
C 5  40178601.939   209220541.441          37.000    40178603.994   170008891.481          35.000  
C 6  36408496.622   189588716.218          45.000    36408493.853   154056393.788          44.000  
C 8  36024838.532   187590854.841          46.000    36024834.332   152432897.221          45.000  
C 9  37562525.961   195598023.699          44.000    37562524.102   158939428.193          42.000  
C13  35806629.725   186454597.979          48.000    35806632.584   151509604.023          46.000  
C14  25081534.409   130606255.465          38.000    25081532.693   106128333.943          37.000  
C16  36839028.091   191830754.716          48.000    36839028.609   155878268.690          43.000  
C23  22889719.676   119192853.221          49.000    22889715.030    96853964.983          48.000  
C24  25079318.650   130594830.784          40.000    25079321.884   106121053.189          40.000  
C25  21676672.851   112876355.443          50.000    21676672.690    91722988.818          49.000  
C32  24991761.295   130138705.510          44.000    24991765.709   105748396.803          41.000  
C33  23495621.703   122348143.012          48.000    23495636.570    99420022.354          46.000  
> 2024  6 26 12 27 24.0000000  0 32                     
G10  20491212.097   107682118.150          50.000    20491214.956    83908193.932          47.000  
G12  21661327.255   113831285.816          45.000    21661329.953    88699828.273          43.000  
G15  25002759.518   131390575.170          35.000    25002765.790   102382380.851          33.000  
G18  25305056.319   132978979.247          32.000    25305064.092   103620016.365          34.000  
G23  20427511.032   107347416.554          46.000    20427512.962    83647405.141          49.000  
G24  23187682.346   121852328.405          40.000    23187687.618    94950002.010          40.000  
G25  20958602.089   110138438.773          45.000    20958606.913    85822304.137          44.000  
G28  22540059.850   118449013.193          43.000    22540063.138    92298039.274          43.000  
G32  22130416.215   116296269.590          47.000    22130420.129    90620564.548          44.000  
R 5  21890734.061   117018788.082          48.000                                                  
R 6  19950796.180   106461278.038          40.000                                                  
R 7  22556898.277   120748875.200          49.000                                                  
R 9  20355752.895   108698765.371          50.000    20355756.951    84543358.348          30.000  
R15  23111648.367   123501921.760          43.000                                                  
R16  19527514.871   104312749.839          52.000    19527519.803    81130704.946          28.000  
R22  23673125.930   126368739.735          41.000                                                  
C 1  37067750.727   193021521.167          44.000    37067752.049   156845830.583          41.000  
C 2  37740956.125   196527015.568          41.000    37740956.000   159694400.743          39.000  
C 3  36779961.678   191522907.274          46.000    36779960.713   155628078.185          42.000  
C 4  38412610.652   200024518.020          41.000    38412609.973   162536413.644          37.000  
C 5  40178602.868   209220547.908          36.000    40178605.209   170008896.757          35.000  
C 6  36408513.884   189588805.981          45.000    36408511.132   154056466.741          44.000  
C 8  36024977.017   187591576.454          46.000    36024972.907   152433483.583          45.000  
C 9  37562529.713   195598043.265          44.000    37562527.640   158939444.085          43.000  
C13  35806715.443   186455044.465          48.000    35806718.391   151509966.841          45.000  
C14  25082007.616   130608719.331          38.000    25082005.758   106130336.059          38.000  
C16  36839063.114   191830937.297          48.000    36839063.686   155878417.038          43.000  
C23  22889310.404   119190721.813          49.000    22889305.633    96852233.029          48.000  
C24  25079884.937   130597778.889          40.000    25079887.939   106123448.771          40.000  
C25  21676830.831   112877177.482          50.000    21676830.491    91723656.787          49.000  
C32  24991247.936   130136030.462          44.000    24991251.992   105746223.102          41.000  
C33  23495954.031   122349873.072          48.000    23495968.791    99421428.162          46.000  
> 2024  6 26 12 27 25.0000000  0 32                     
G10  20491000.314   107681005.378          50.000    20491003.065    83907326.816          47.000  
G12  21661279.313   113831033.556          45.000    21661280.528    88699631.716          43.000  
G15  25003290.800   131393367.321          35.000    25003296.768   102384556.557          33.000  
G18  25305654.145   132982120.677          33.000    25305661.454   103622464.239          34.000  
G23  20427815.502   107349017.031          46.000    20427817.182    83648652.261          49.000  
G24  23188289.679   121855518.705          40.000    23188294.700    94952487.946          40.000  
G25  20958209.131   110136373.405          46.000    20958213.312    85820694.762          44.000  
G28  22539631.011   118446759.102          43.000    22539633.549    92296282.817          43.000  
G32  22130097.718   116294595.652          47.000    22130101.899    90619260.195          44.000  
R 5  21891122.694   117020864.921          48.000                                                  
R 6  19950547.300   106459949.962          40.000                                                  
R 7  22556320.536   120745780.742          49.000                                                  
R 9  20355194.381   108695782.680          50.000    20355198.830    84541038.484          30.000  
R15  23112398.348   123505929.484          44.000                                                  
R16  19527736.322   104313932.378          52.000    19527739.807    81131624.712          28.000  
R22  23673415.140   126370282.682          41.000                                                  
C 1  37067761.484   193021577.566          45.000    37067762.645   156845876.416          41.000  
C 2  37740962.557   196527048.333          41.000    37740962.129   159694427.412          39.000  
C 3  36779972.149   191522962.656          46.000    36779971.541   155628123.180          42.000  
C 4  38412620.855   200024572.332          42.000    38412620.248   162536457.778          37.000  
C 5  40178604.280   209220555.320          37.000    40178606.728   170008902.740          35.000  
C 6  36408531.217   189588896.727          45.000    36408528.501   154056540.459          44.000  
C 8  36025115.645   187592299.221          46.000    36025111.606   152434070.908          45.000  
C 9  37562533.680   195598063.806          44.000    37562531.679   158939460.783          42.000  
C13  35806801.339   186455492.096          49.000    35806804.269   151510330.577          46.000  
C14  25082480.788   130611184.359          38.000    25082479.037   106132339.083          38.000  
C16  36839098.441   191831120.848          48.000    36839099.031   155878566.190          43.000  
C23  22888901.096   119188591.710          49.000    22888896.593    96850502.154          48.000  
C24  25080451.224   130600728.091          40.000    25080454.226   106125845.241          40.000  
C25  21676988.900   112878000.914          51.000    21676988.703    91724325.900          49.000  
C32  24990734.112   130133356.344          44.000    24990738.561   105744050.175          42.000  
C33  23496286.359   122351604.377          48.000    23496301.244    99422834.984          46.000  
> 2024  6 26 12 27 26.0000000  0 32                     
G10  20490785.671   107679877.221          50.000    20490788.369    83906447.743          47.000  
G12  21661228.207   113830766.011          45.000    21661230.066    88699423.262          43.000  
G15  25003818.633   131396143.535          35.000    25003825.065   102386719.800          33.000  
G18  25306248.916   132985245.949          33.000    25306256.135   103624899.534          34.000  
G23  20428117.042   107350602.150          46.000    20428118.811    83649887.405          49.000  
G24  23188893.991   121858693.121          39.000    23188898.995    94954961.515          40.000  
G25  20957813.082   110134292.635          45.000    20957817.067    85819073.387          44.000  
G28  22539198.938   118444489.374          43.000    22539201.440    92294514.193          43.000  
G32  22129776.129   116292905.820          47.000    22129779.560    90617943.429          44.000  
R 5  21891508.361   117022925.900          48.000                                                  
R 6  19950295.240   106458606.022          40.000                                                  
R 7  22555739.650   120742669.987          49.000                                                  
R 9  20354632.901   108692784.388          50.000    20354637.118    84538706.437          29.000  
R15  23113145.541   123509921.213          44.000                                                  
R16  19527954.878   104315099.507          52.000    19527958.827    81132532.496          28.000  
R22  23673701.152   126371809.985          41.000                                                  
C 1  37067769.257   193021618.139          44.000    37067770.508   156845909.380          41.000  
C 2  37740965.685   196527065.326          41.000    37740965.327   159694441.180          38.000  
C 3  36779979.672   191523002.230          46.000    36779979.189   155628155.340          43.000  
C 4  38412628.271   200024610.842          41.000    38412627.878   162536489.067          37.000  
C 5  40178602.493   209220546.899          36.000    40178604.816   170008895.918          36.000  
C 6  36408545.834   189588971.701          45.000    36408542.974   154056601.407          44.000  
C 8  36025251.610   187593006.397          46.000    36025247.446   152434645.544          45.000  
C 9  37562534.556   195598068.589          44.000    37562532.501   158939464.677          43.000  
C13  35806884.412   186455924.106          48.000    35806887.343   151510681.607          46.000  
C14  25082951.261   130613633.773          38.000    25082949.671   106134329.418          38.000  
C16  36839130.677   191831288.614          48.000    36839131.159   155878702.512          43.000  
C23  22888489.251   119186446.194          49.000    22888484.605    96848758.746          48.000  
C24  25081014.849   130603661.611          40.000    25081017.601   106128228.945          40.000  
C25  21677144.075   112878809.001          51.000    21677143.860    91724982.528          49.000  
C32  24990217.358   130130666.443          44.000    24990221.968   105741864.410          41.000  
C33  23496615.757   122353320.186          48.000    23496630.802    99424229.227          46.000  
> 2024  6 26 12 27 27.0000000  0 32                     
G10  20490572.065   107678755.146          50.000    20490575.227    83905573.416          47.000  
G12  21661178.460   113830504.642          45.000    21661180.247    88699219.589          43.000  
G15  25004348.002   131398925.324          35.000    25004354.918   102388887.492          33.000  
G18  25306844.580   132988376.451          33.000    25306852.013   103627338.921          34.000  
G23  20428419.922   107352193.355          46.000    20428422.030    83651127.309          48.000  
G24  23189498.876   121861873.074          39.000    23189504.451    94957439.387          40.000  
G25  20957418.159   110132217.901          46.000    20957422.697    85817456.700          43.000  
G28  22538768.098   118442225.470          43.000    22538771.190    92292750.131          43.000  
G32  22129455.523   116291221.556          47.000    22129459.311    90616631.038          44.000  
R 5  21891894.922   117024992.848          47.000                                                  
R 6  19950044.520   106457267.979          40.000                                                  
R 7  22555159.175   120739564.753          49.000                                                  
R 9  20354072.564   108689792.295          50.000    20354075.173    84536379.224          29.000  
R15  23113893.681   123513918.723          44.000                                                  
R16  19528174.488   104316273.041          52.000    19528179.510    81133445.142          28.000  
R22  23673988.307   126373343.456          41.000                                                  
C 1  37067778.156   193021664.148          45.000    37067779.210   156845946.792          41.000  
C 2  37740970.080   196527087.696          41.000    37740969.669   159694459.369          39.000  
C 3  36779988.446   191523047.251          46.000    36779987.731   155628191.921          42.000  
C 4  38412636.777   200024654.750          41.000    38412636.169   162536524.752          37.000  
C 5  40178602.368   209220543.910          36.000    40178604.208   170008893.485          36.000  
C 6  36408561.022   189589052.141          45.000    36408558.431   154056666.767          45.000  
C 8  36025388.433   187593719.191          47.000    36025384.270   152435224.744          45.000  
C 9  37562536.396   195598078.871          44.000    37562534.591   158939473.029          43.000  
C13  35806968.539   186456361.732          49.000    35806971.255   151511037.226          46.000  
C14  25083422.789   130616088.837          38.000    25083421.306   106136324.351          38.000  
C16  36839163.877   191831461.848          48.000    36839164.324   155878843.281          43.000  
C23  22888078.532   119184306.484          49.000    22888073.653    96847020.056          48.000  
C24  25081579.439   130606600.711          40.000    25081582.244   106130617.204          40.000  
C25  21677300.571   112879622.996          51.000    21677300.196    91725643.963          49.000  
C32  24989702.301   130127981.988          44.000    24989706.393   105739683.066          41.000  
C33  23496946.477   122355041.747          48.000    23496961.344    99425628.129          46.000  
> 2024  6 26 12 27 28.0000000  0 32                     
G10  20490361.442   107677647.726          50.000    20490364.087    83904710.478          47.000  
G12  21661131.679   113830258.008          45.000    21661133.680    88699027.408          42.000  
G15  25004880.053   131401721.329          35.000    25004886.289   102391066.208          33.000  
G18  25307442.817   132991520.924          33.000    25307450.250   103629789.164          34.000  
G23  20428725.536   107353799.237          46.000    20428727.394    83652378.644          48.000  
G24  23190106.744   121865067.148          39.000    23190111.819    94959928.303          40.000  
G25  20957026.094   110130157.800          46.000    20957030.669    85815851.429          43.000  
G28  22538340.207   118439975.963          43.000    22538342.601    92290997.252          43.000  
G32  22129137.705   116289551.417          47.000    22129141.600    90615329.638          44.000  
R 5  21892284.306   117027074.484          48.000                                                  
R 6  19949796.444   106455944.605          40.000                                                  
R 7  22554581.916   120736473.784          49.000                                                  
R 9  20353515.050   108686815.111          50.000    20353518.070    84534063.715          30.000  
R15  23114644.502   123517930.794          44.000                                                  
R16  19528397.029   104317461.724          52.000    19528401.336    81134369.801          29.000  
R22  23674278.321   126374891.763          41.000                                                  
C 1  37067789.413   193021724.124          45.000    37067790.878   156845995.487          41.000  
C 2  37740976.996   196527124.054          41.000    37740976.656   159694488.918          39.000  
C 3  36779999.757   191523106.215          46.000    36779999.292   155628239.834          42.000  
C 4  38412647.980   200024712.646          41.000    38412647.534   162536571.784          37.000  
C 5  40178604.101   209220554.892          36.000    40178606.460   170008902.421          34.000  
C 6  36408579.320   189589146.583          45.000    36408576.568   154056743.501          44.000  
C 8  36025528.133   187594446.134          46.000    36025523.970   152435815.438          45.000  
C 9  37562541.132   195598103.163          44.000    37562539.255   158939492.766          43.000  
C13  35807055.311   186456813.515          49.000    35807057.938   151511404.337          46.000  
C14  25083896.640   130618558.052          38.000    25083895.282   106138330.791          38.000  
C16  36839199.740   191831649.059          48.000    36839200.312   155878995.410          43.000  
C23  22887670.332   119182181.106          49.000    22887665.454    96845293.017          48.000  
C24  25082146.423   130609553.873          40.000    25082149.407   106133016.886          39.000  
C25  21677459.552   112880451.394          51.000    21677459.302    91726317.109          49.000  
C32  24989189.246   130125311.500          44.000    24989193.606   105737513.084          41.000  
C33  23497279.930   122356777.567          48.000    23497294.744    99427038.628          46.000  
> 2024  6 26 12 27 29.0000000  0 32                     
G10  20490148.247   107676527.756          50.000    20490151.374    83903837.776          47.000  
G12  21661082.414   113829998.919          45.000    21661084.040    88698825.501          42.000  
G15  25005409.619   131404504.257          34.000    25005415.766   102393234.719          33.000  
G18  25308038.713   132994651.980          33.000    25308045.986   103632228.960          34.000  
G23  20429028.684   107355392.581          46.000    20429030.649    83653620.204          48.000  
G24  23190711.950   121868248.119          39.000    23190717.507    94962406.975          40.000  
G25  20956631.904   110128085.108          46.000    20956636.085    85814236.368          44.000  
G28  22537909.778   118437713.639          43.000    22537912.512    92289234.406          43.000  
G32  22128817.545   116287868.215          47.000    22128821.566    90614018.031          44.000  
R 5  21892671.456   117029143.131          48.000                                                  
R 6  19949545.974   106454608.236          40.000                                                  
R 7  22554002.227   120733369.363          49.000                                                  
R 9  20352955.142   108683825.172          50.000    20352958.805    84531738.225          30.000  
R15  23115392.749   123521929.750          44.000                                                  
R16  19528617.283   104318637.889          52.000    19528620.749    81135284.593          28.000  
R22  23674565.887   126376427.308          41.000                                                  
C 1  37067798.473   193021771.076          45.000    37067799.867   156846033.642          41.000  
C 2  37740981.606   196527147.392          41.000    37740981.231   159694507.891          38.000  
C 3  36780008.638   191523152.170          46.000    36780007.869   155628277.178          43.000  
C 4  38412656.486   200024757.510          41.000    38412656.057   162536608.230          37.000  
C 5  40178604.137   209220552.883          36.000    40178606.085   170008900.757          35.000  
C 6  36408594.902   189589228.032          45.000    36408592.257   154056809.686          44.000  
C 8  36025665.456   187595160.254          46.000    36025661.222   152436395.731          45.000  
C 9  37562543.329   195598114.491          44.000    37562541.525   158939501.967          43.000  
C13  35807139.439   186457252.458          48.000    35807142.298   151511761.013          46.000  
C14  25084368.078   130621014.468          38.000    25084367.113   106140326.821          38.000  
C16  36839233.173   191831823.290          48.000    36839233.870   155879136.982          43.000  
C23  22887259.666   119180043.106          49.000    22887254.984    96843555.708          48.000  
C24  25082710.941   130612494.168          40.000    25082713.925   106135406.116          40.000  
C25  21677616.174   112881267.248          50.000    21677615.978    91726980.057          49.000  
C32  24988673.921   130122627.996          44.000    24988678.209   105735332.532          41.000  
C33  23497610.686   122358500.686          48.000    23497625.714    99428438.803          46.000  
> 2024  6 26 12 27 30.0000000  0 32                     
G10  20489933.694   107675400.479          50.000    20489936.821    83902959.382          47.000  
G12  21661031.719   113829732.609          45.000    21661032.809    88698617.987          43.000  
G15  25005937.899   131407279.441          34.000    25005944.081   102395397.132          33.000  
G18  25308632.876   132997774.973          33.000    25308640.327   103634662.456          34.000  
G23  20429330.491   107356978.624          46.000    20429332.457    83654856.109          49.000  
G24  23191315.851   121871421.273          40.000    23191320.748    94964879.549          41.000  
G25  20956236.051   110126005.080          46.000    20956241.055    85812615.560          44.000  
G28  22537477.705   118435443.734          43.000    22537480.903    92287465.665          43.000  
G32  22128495.778   116286177.186          47.000    22128499.370    90612700.353          44.000  
R 5  21893056.962   117031204.140          47.000                                                  
R 6  19949294.324   106453264.200          40.000                                                  
R 7  22553420.483   120730256.845          49.000                                                  
R 9  20352393.787   108680827.813          50.000    20352398.772    84529406.886          30.000  
R15  23116139.478   123525920.934          44.000                                                  
R16  19528836.071   104319806.855          52.000    19528839.967    81136193.755          28.000  
R22  23674852.006   126377955.411          41.000                                                  
C 1  37067806.031   193021810.176          45.000    37067807.229   156846065.426          41.000  
C 2  37740984.501   196527162.923          41.000    37740984.215   159694520.518          39.000  
C 3  36780016.071   191523190.288          46.000    36780015.249   155628308.171          42.000  
C 4  38412663.759   200024794.512          41.000    38412662.937   162536638.332          37.000  
C 5  40178601.671   209220543.008          37.000    40178604.101   170008892.759          36.000  
C 6  36408609.197   189589301.695          45.000    36408606.320   154056869.554          44.000  
C 8  36025800.796   187595866.772          46.000    36025796.758   152436969.825          45.000  
C 9  37562543.865   195598118.039          44.000    37562542.025   158939504.854          43.000  
C13  35807222.315   186457683.765          49.000    35807225.246   151512111.488          46.000  
C14  25084838.409   130623463.245          38.000    25084837.247   106142316.681          37.000  
C16  36839264.980   191831989.713          48.000    36839265.766   155879272.224          43.000  
C23  22886847.642   119177897.659          49.000    22886842.907    96841812.366          48.000  
C24  25083274.101   130615426.769          40.000    25083277.282   106137789.085          40.000  
C25  21677771.438   112882075.740          51.000    21677771.242    91727637.025          49.000  
C32  24988157.059   130119936.705          44.000    24988161.241   105733145.625          41.000  
C33  23497940.244   122360216.306          48.000    23497954.986    99429832.880          46.000  
> 2024  6 26 12 27 31.0000000  0 32                     
G10  20489722.321   107674289.332          50.000    20489725.234    83902093.547          47.000  
G12  21660984.027   113829482.509          45.000    21660985.474    88698423.119          43.000  
G15  25006469.038   131410070.192          34.000    25006475.721   102397571.791          33.000  
G18  25309230.005   133000913.275          33.000    25309236.974   103637107.922          34.000  
G23  20429635.194   107358580.812          46.000    20429637.713    83656104.538          49.000  
G24  23191922.666   121874610.030          40.000    23191928.134    94967364.285          41.000  
G25  20955843.290   110123941.148          46.000    20955847.668    85811007.287          44.000  
G28  22537048.670   118433189.711          43.000    22537051.457    92285709.274          44.000  
G32  22128176.780   116284501.745          47.000    22128181.337    90611394.817          44.000  
R 5  21893445.453   117033281.334          47.000                                                  
R 6  19949045.641   106451936.258          40.000                                                  
R 7  22552841.741   120727160.106          49.000                                                  
R 9  20351835.469   108677846.815          50.000    20351840.133    84527088.337          30.000  
R15  23116889.316   123529928.174          44.000                                                  
R16  19529057.969   104320992.433          52.000    19529061.953    81137115.813          28.000  
R22  23675141.127   126379499.854          41.000                                                  
C 1  37067816.592   193021864.688          44.000    37067817.646   156846109.729          41.000  
C 2  37740990.344   196527193.841          40.000    37740989.826   159694545.630          39.000  
C 3  36780026.203   191523243.820          46.000    36780025.452   155628351.649          42.000  
C 4  38412673.694   200024846.945          41.000    38412672.979   162536680.929          38.000  
C 5  40178602.886   209220548.559          37.000    40178605.066   170008897.246          34.000  
C 6  36408626.226   189589390.804          45.000    36408623.421   154056941.958          44.000  
C 8  36025939.639   187596588.885          46.000    36025935.404   152437556.604          45.000  
C 9  37562547.493   195598137.047          44.000    37562545.581   158939520.297          42.000  
C13  35807308.140   186458130.698          48.000    35807310.963   151512474.646          46.000  
C14  25085312.134   130625927.654          37.000    25085310.473   106144319.206          38.000  
C16  36839300.039   191832171.574          48.000    36839300.718   155879419.996          43.000  
C23  22886438.709   119175767.995          49.000    22886433.903    96840081.835          48.000  
C24  25083840.227   130618374.897          40.000    25083843.354   106140184.681          40.000  
C25  21677929.865   112882900.093          50.000    21677929.579    91728306.882          48.000  
C32  24987643.611   130117260.810          44.000    24987647.363   105730971.247          41.000  
C33  23498272.858   122361947.634          48.000    23498287.511    99431239.726          46.000  
> 2024  6 26 12 27 32.0000000  0 32                     
G10  20489512.753   107673187.761          50.000    20489515.773    83901235.196          47.000  
G12  21660938.229   113829242.075          45.000    21660939.730    88698235.768          43.000  
G15  25007001.945   131412870.035          34.000    25007008.736   102399753.509          32.000  
G18  25309828.903   133004060.400          32.000    25309835.890   103639560.226          34.000  
G23  20429942.077   107360192.567          46.000    20429943.935    83657360.460          49.000  
G24  23192531.267   121877807.807          40.000    23192536.377    94969856.057          41.000  
G25  20955452.101   110121886.749          46.000    20955456.944    85809406.459          43.000  
G28  22536621.796   118430944.981          43.000    22536624.262    92283960.118          43.000  
G32  22127859.891   116282835.380          47.000    22127863.483    90610096.383          44.000  
R 5  21893835.766   117035368.052          48.000                                                  
R 6  19948798.245   106450617.804          40.000                                                  
R 7  22552265.108   120724072.458          49.000                                                  
R 9  20351279.028   108674875.593          50.000    20351281.851    84524777.402          30.000  
R15  23117640.976   123533944.748          44.000                                                  
R16  19529281.867   104322187.942          52.000    19529285.048    81138045.693          29.000  
R22  23675432.320   126381053.970          40.000                                                  
C 1  37067828.993   193021928.104          45.000    37067830.012   156846161.262          41.000  
C 2  37740998.367   196527233.672          41.000    37740997.724   159694577.986          39.000  
C 3  36780037.943   191523306.241          46.000    36780037.532   155628402.385          43.000  
C 4  38412685.541   200024908.272          41.000    38412684.916   162536730.762          37.000  
C 5  40178606.031   209220563.022          37.000    40178607.943   170008909.006          35.000  
C 6  36408644.917   189589488.862          45.000    36408642.183   154057021.624          44.000  
C 8  36026080.071   187597320.091          46.000    36026075.819   152438150.773          45.000  
C 9  37562552.764   195598165.020          44.000    37562551.067   158939543.020          42.000  
C13  35807395.716   186458586.698          49.000    35807398.486   151512845.183          46.000  
C14  25085786.914   130628401.170          38.000    25085785.431   106146329.126          37.000  
C16  36839336.706   191832362.373          48.000    36839337.439   155879575.043          43.000  
C23  22886031.314   119173647.614          49.000    22886026.793    96838358.860          48.000  
C24  25084408.373   130621332.072          40.000    25084411.250   106142587.611          39.000  
C25  21678089.864   112883733.818          51.000    21678089.650    91728984.345          49.000  
C32  24987131.288   130114593.834          44.000    24987135.362   105728804.122          41.000  
C33  23498606.956   122363688.183          48.000    23498621.858    99432654.062          46.000  
> 2024  6 26 12 27 33.0000000  0 32                     
G10  20489300.219   107672071.309          50.000    20489303.078    83900365.220          47.000  
G12  21660889.679   113828986.846          45.000    21660891.197    88698036.883          43.000  
G15  25007531.816   131415654.483          35.000    25007538.481   102401923.198          32.000  
G18  25310424.799   133007191.856          33.000    25310432.554   103642000.328          34.000  
G23  20430246.225   107361789.473          46.000    20430247.851    83658604.798          49.000  
G24  23193136.616   121880990.160          40.000    23193141.565    94972335.838          41.000  
G25  20955058.340   110119817.441          46.000    20955063.450    85807794.027          44.000  
G28  22536191.921   118428685.101          43.000    22536194.119    92282199.205          43.000  
G32  22127539.910   116281153.595          47.000    22127542.966    90608785.887          44.000  
R 5  21894223.291   117037439.401          48.000                                                  
R 6  19948548.471   106449283.980          40.000                                                  
R 7  22551685.490   120720969.030          49.000                                                  
R 9  20350719.870   108671889.270          50.000    20350722.497    84522454.730          30.000  
R15  23118389.813   123537945.841          44.000                                                  
R16  19529502.925   104323368.542          52.000    19529506.034    81138963.911          29.000  
R22  23675720.423   126382592.992          41.000                                                  
C 1  37067838.142   193021976.225          45.000    37067839.196   156846200.342          41.000  
C 2  37741002.995   196527258.184          41.000    37741002.548   159694597.912          38.000  
C 3  36780046.984   191523353.352          46.000    36780046.431   155628440.670          42.000  
C 4  38412694.368   200024954.294          41.000    38412694.083   162536768.147          38.000  
C 5  40178605.977   209220562.150          37.000    40178607.961   170008908.309          35.000  
C 6  36408660.946   189589571.629          45.000    36408658.033   154057088.891          44.000  
C 8  36026217.699   187598036.168          46.000    36026213.464   152438732.644          45.000  
C 9  37562555.284   195598177.715          44.000    37562553.604   158939553.355          42.000  
C13  35807480.308   186459027.565          48.000    35807483.203   151513203.431          46.000  
C14  25086259.085   130630859.566          37.000    25086257.459   106148326.788          38.000  
C16  36839370.336   191832537.875          48.000    36839371.176   155879717.638          43.000  
C23  22885621.184   119171512.297          49.000    22885616.734    96836623.743          48.000  
C24  25084973.034   130624274.036          40.000    25084976.125   106144978.203          40.000  
C25  21678247.076   112884552.687          51.000    21678246.968    91729649.750          48.000  
C32  24986615.999   130111911.569          44.000    24986620.306   105726624.538          41.000  
C33  23498938.176   122365413.727          48.000    23498953.347    99434056.210          46.000  
> 2024  6 26 12 27 34.0000000  0 32                     
G10  20489086.362   107670947.398          50.000    20489089.293    83899489.456          47.000  
G12  21660839.485   113828724.251          45.000    21660841.593    88697832.259          43.000  
G15  25008060.113   131418430.988          35.000    25008066.886   102404086.667          32.000  
G18  25311019.159   133010315.010          32.000    25311026.985   103644433.988          35.000  
G23  20430548.498   107363378.935          46.000    20430550.481    83659843.332          49.000  
G24  23193740.714   121884164.550          40.000    23193746.396    94974809.345          41.000  
G25  20954663.202   110117740.632          46.000    20954668.473    85806175.748          44.000  
G28  22535760.081   118426417.515          43.000    22535762.582    92280432.259          44.000  
G32  22127218.304   116279463.834          47.000    22127221.466    90607469.186          44.000  
R 5  21894609.226   117039502.941          48.000                                                  
R 6  19948297.251   106447942.334          40.000                                                  
R 7  22551103.782   120717857.357          48.000                                                  
R 9  20350159.283   108668895.343          50.000    20350163.697    84520126.102          31.000  
R15  23119137.025   123541938.949          44.000                                                  
R16  19529722.535   104324541.783          52.000    19529725.019    81139876.474          29.000  
R22  23676007.238   126384124.385          40.000                                                  
C 1  37067845.647   193022016.349          45.000    37067846.862   156846232.956          41.000  
C 2  37741005.872   196527274.703          41.000    37741005.640   159694611.330          39.000  
C 3  36780054.454   191523392.479          46.000    36780054.061   155628472.461          43.000  
C 4  38412701.820   200024992.342          41.000    38412701.212   162536799.059          37.000  
C 5  40178603.708   209220553.281          37.000    40178606.156   170008901.102          35.000  
C 6  36408675.438   189589646.464          45.000    36408672.400   154057149.702          44.000  
C 8  36026353.646   187598744.469          46.000    36026349.358   152439308.182          45.000  
C 9  37562556.410   195598182.498          44.000    37562554.444   158939557.233          43.000  
C13  35807563.542   186459460.666          49.000    35807566.365   151513555.361          46.000  
C14  25086729.702   130633310.201          37.000    25086728.380   106150318.135          37.000  
C16  36839402.750   191832705.435          48.000    36839403.161   155879853.811          43.000  
C23  22885210.000   119169369.406          49.000    22885205.121    96834882.462          48.000  
C24  25085536.462   130627208.176          40.000    25085539.732   106147362.417          39.000  
C25  21678402.929   112885364.045          51.000    21678402.804    91730309.045          49.000  
C32  24986099.656   130109221.313          44.000    24986103.712   105724438.511          41.000  
C33  23499268.217   122367131.604          48.000    23499283.191    99435452.126          46.000  
> 2024  6 26 12 27 35.0000000  0 32                     
G10  20488875.347   107669838.810          50.000    20488878.581    83898625.617          47.000  
G12  21660792.703   113828477.056          45.000    21660794.312    88697639.644          43.000  
G15  25008591.324   131421222.370          35.000    25008597.846   102406261.800          32.000  
G18  25311616.002   133013452.736          33.000    25311624.365   103646878.947          34.000  
G23  20430853.718   107364983.720          46.000    20430855.559    83661093.817          49.000  
G24  23194347.438   121887353.708          40.000    23194352.585    94977294.419          41.000  
G25  20954270.888   110115679.141          46.000    20954275.140    85804569.378          44.000  
G28  22535331.421   118424164.991          43.000    22535333.637    92278677.050          44.000  
G32  22126899.520   116277788.866          47.000    22126902.594    90606164.004          44.000  
R 5  21894998.092   117041581.836          48.000                                                  
R 6  19948048.371   106446616.004          40.000                                                  
R 7  22550525.076   120714760.636          48.000                                                  
R 9  20349601.448   108665917.006          50.000    20349606.291    84517809.594          31.000  
R15  23119887.345   123545947.293          44.000                                                  
R16  19529945.094   104325730.842          52.000    19529948.132    81140801.242          29.000  
R22  23676297.163   126385671.305          40.000                                                  
C 1  37067856.226   193022071.056          45.000    37067857.423   156846277.417          41.000  
C 2  37741012.073   196527305.851          41.000    37741011.644   159694636.645          39.000  
C 3  36780064.961   191523446.209          46.000    36780064.443   155628516.100          42.000  
C 4  38412711.773   200025044.938          41.000    38412711.469   162536841.802          37.000  
C 5  40178604.923   209220559.074          37.000    40178607.067   170008905.790          35.000  
C 6  36408692.538   189589735.933          45.000    36408689.590   154057222.394          44.000  
C 8  36026492.488   187599467.568          46.000    36026488.182   152439895.757          45.000  
C 9  37562560.055   195598201.934          44.000    37562558.089   158939573.040          42.000  
C13  35807649.599   186459908.547          49.000    35807652.315   151513919.290          45.000  
C14  25087202.963   130635775.643          37.000    25087201.909   106152321.512          37.000  
C16  36839437.774   191832887.610          47.000    36839438.167   155880001.848          43.000  
C23  22884801.407   119167241.482          49.000    22884796.385    96833153.344          48.000  
C24  25086102.946   130630157.034          40.000    25086106.127   106149758.630          39.000  
C25  21678561.731   112886190.472          50.000    21678561.445    91730980.587          48.000  
C32  24985585.457   130106545.695          44.000    24985589.781   105722264.343          41.000  
C33  23499600.974   122368864.400          48.000    23499615.966    99436860.167          46.000  
> 2024  6 26 12 27 36.0000000  0 32                     
G10  20488664.600   107668731.763          50.000    20488667.477    83897762.978          47.000  
G12  21660746.208   113828231.507          45.000    21660747.513    88697448.308          43.000  
G15  25009123.016   131424014.747          35.000    25009128.788   102408437.698          33.000  
G18  25312213.310   133016591.173          32.000    25312221.458   103649324.581          35.000  
G23  20431159.511   107366590.055          46.000    20431161.423    83662345.511          49.000  
G24  23194954.664   121890543.882          40.000    23194959.828    94979780.249          41.000  
G25  20953879.020   110113619.129          46.000    20953883.987    85802964.203          44.000  
G28  22534902.993   118421913.729          43.000    22534905.763    92276922.838          44.000  
G32  22126580.969   116276114.933          47.000    22126584.543    90604859.648          44.000  
R 5  21895387.404   117043662.071          48.000                                                  
R 6  19947800.027   106445290.977          40.000                                                  
R 7  22549946.906   120711664.804          49.000                                                  
R 9  20349044.042   108662940.231          50.000    20349047.401    84515494.382          31.000  
R15  23120637.719   123549956.831          44.000                                                  
R16  19530168.171   104326921.712          52.000    19530171.727    81141727.533          29.000  
R22  23676587.178   126387219.782          40.000                                                  
C 1  37067867.018   193022126.725          45.000    37067868.126   156846322.653          41.000  
C 2  37741018.184   196527337.938          41.000    37741017.934   159694662.733          39.000  
C 3  36780075.503   191523500.887          46.000    36780075.021   155628560.542          43.000  
C 4  38412721.976   200025098.513          42.000    38412721.797   162536885.356          38.000  
C 5  40178606.067   209220565.762          37.000    40178608.372   170008911.248          36.000  
C 6  36408709.800   189589826.394          46.000    36408707.048   154057295.903          45.000  
C 8  36026631.599   187600191.832          47.000    36026627.328   152440484.284          45.000  
C 9  37562563.843   195598222.387          44.000    37562562.163   158939589.643          43.000  
C13  35807735.782   186460357.571          49.000    35807738.551   151514284.168          46.000  
C14  25087676.939   130638242.250          38.000    25087675.670   106154325.821          38.000  
C16  36839472.797   191833070.788          48.000    36839473.315   155880150.681          43.000  
C23  22884392.939   119165114.886          49.000    22884388.132    96831425.320          48.000  
C24  25086669.591   130633107.009          40.000    25086672.682   106152155.696          40.000  
C25  21678720.587   112887018.315          51.000    21678720.444    91731653.275          49.000  
C32  24985071.830   130103871.048          44.000    24985076.261   105720090.961          42.000  
C33  23499933.874   122370598.473          48.000    23499948.955    99438269.234          46.000  
> 2024  6 26 12 27 37.0000000  0 32                     
G10  20488451.154   107667609.671          50.000    20488454.228    83896888.632          48.000  
G12  21660696.693   113827970.975          45.000    21660698.284    88697245.296          43.000  
G15  25009651.671   131426791.566          35.000    25009656.961   102410601.433          33.000  
G18  25312807.508   133019713.790          32.000    25312815.835   103651757.738          35.000  
G23  20431462.498   107368181.353          46.000    20431464.535    83663585.477          49.000  
G24  23195558.815   121893718.445          39.000    23195564.480    94982253.952          41.000  
G25  20953484.186   110111544.048          46.000    20953488.010    85801347.214          44.000  
G28  22534471.742   118419647.173          43.000    22534474.708    92275156.698          44.000  
G32  22126259.309   116274425.407          47.000    22126262.793    90603543.145          45.000  
R 5  21895773.447   117045726.755          48.000                                                  
R 6  19947548.735   106443950.413          40.000                                                  
R 7  22549365.734   120708552.982          49.000                                                  
R 9  20348483.705   108659948.135          50.000    20348487.154    84513167.197          30.000  
R15  23121385.055   123553950.700          44.000                                                  
R16  19530388.282   104328097.501          52.000    19530391.552    81142641.981          29.000  
R22  23676874.297   126388752.916          41.000                                                  
C 1  37067874.488   193022166.890          45.000    37067875.917   156846355.295          41.000  
C 2  37741021.239   196527354.524          41.000    37741021.239   159694676.191          39.000  
C 3  36780083.026   191523540.055          46.000    36780082.544   155628592.366          43.000  
C 4  38412729.267   200025136.588          42.000    38412728.981   162536916.299          37.000  
C 5  40178604.226   209220556.931          36.000    40178606.764   170008904.089          35.000  
C 6  36408724.059   189589901.376          45.000    36408721.468   154057356.830          44.000  
C 8  36026767.618   187600900.776          46.000    36026763.508   152441060.361          45.000  
C 9  37562564.933   195598227.368          43.000    37562563.110   158939593.705          43.000  
C13  35807819.051   186460791.274          48.000    35807821.875   151514636.580          46.000  
C14  25088147.966   130640693.539          38.000    25088146.447   106156317.709          38.000  
C16  36839504.890   191833238.482          48.000    36839505.587   155880286.951          43.000  
C23  22883981.540   119162973.181          49.000    22883976.787    96829685.005          48.000  
C24  25087233.197   130636041.593          40.000    25087236.253   106154540.314          40.000  
C25  21678876.780   112887831.115          51.000    21678876.601    91732313.737          49.000  
C32  24984555.200   130101180.892          44.000    24984559.668   105717904.991          42.000  
C33  23500263.968   122372317.341          48.000    23500279.085    99439665.960          46.000  
> 2024  6 26 12 27 38.0000000  0 32                     
G10  20488238.781   107666494.328          50.000    20488241.801    83896019.541          47.000  
G12  21660648.161   113827717.292          45.000    21660649.519    88697047.600          43.000  
G15  25010181.238   131429574.711          35.000    25010187.438   102412770.088          32.000  
G18  25313403.119   133022842.370          32.000    25313412.428   103654195.620          35.000  
G23  20431766.468   107369779.434          46.000    20431768.594    83664830.720          49.000  
G24  23196164.236   121896899.252          40.000    23196169.096    94984732.492          41.000  
G25  20953090.406   110109475.693          46.000    20953095.267    85799735.511          44.000  
G28  22534041.474   118417387.090          43.000    22534044.404    92273395.576          44.000  
G32  22125938.953   116272742.140          47.000    22125942.795    90602231.520          44.000  
R 5  21896160.847   117047798.113          47.000                                                  
R 6  19947298.855   106442616.478          40.000                                                  
R 7  22548785.294   120705447.392          49.000                                                  
R 9  20347924.619   108656962.972          50.000    20347928.675    84510845.378          30.000  
R15  23122133.606   123557951.080          44.000                                                  
R16  19530609.679   104329280.401          52.000    19530612.520    81143562.079          29.000  
R22  23677162.953   126390292.939          40.000                                                  
C 1  37067883.601   193022213.185          45.000    37067884.709   156846392.901          41.000  
C 2  37741025.474   196527377.217          41.000    37741025.224   159694694.649          39.000  
C 3  36780091.657   191523585.355          46.000    36780091.210   155628629.205          43.000  
C 4  38412737.486   200025180.794          42.000    38412737.415   162536952.197          37.000  
C 5  40178604.458   209220554.256          37.000    40178606.442   170008901.908          34.000  
C 6  36408739.802   189589982.529          45.000    36408737.086   154057422.779          45.000  
C 8  36026905.102   187601616.062          46.000    36026900.831   152441641.597          45.000  
C 9  37562567.113   195598238.546          44.000    37562565.219   158939602.787          42.000  
C13  35807903.750   186461231.298          49.000    35807906.288   151514994.136          46.000  
C14  25088620.173   130643151.208          38.000    25088618.225   106158314.740          38.000  
C16  36839538.519   191833412.323          48.000    36839538.948   155880428.225          43.000  
C23  22883571.696   119160837.990          49.000    22883566.746    96827949.989          48.000  
C24  25087798.037   130638982.452          40.000    25087800.968   106156929.963          40.000  
C25  21679034.153   112888650.505          51.000    21679033.938    91732979.572          49.000  
C32  24984040.090   130098496.890          44.000    24984044.057   105715724.032          42.000  
C33  23500595.367   122374042.665          48.000    23500610.359    99441067.924          46.000  
> 2024  6 26 12 27 39.0000000  0 32                     
G10  20488029.571   107665394.350          50.000    20488032.376    83895162.381          47.000  
G12  21660602.863   113827479.038          45.000    21660604.757    88696861.978          43.000  
G15  25010713.592   131432372.693          34.000    25010719.167   102414950.354          32.000  
G18  25314001.141   133025985.583          32.000    25314010.380   103656644.891          35.000  
G23  20432073.529   107371392.870          46.000    20432075.388    83666087.950          49.000  
G24  23196772.211   121900094.869          40.000    23196777.804    94987222.585          41.000  
G25  20952699.772   110107422.657          46.000    20952704.578    85798135.740          44.000  
G28  22533614.386   118415142.111          43.000    22533617.102    92271646.235          44.000  
G32  22125621.510   116271073.694          47.000    22125625.512    90600931.424          44.000  
R 5  21896551.464   117049884.891          48.000                                                  
R 6  19947051.869   106441297.893          40.000                                                  
R 7  22548208.125   120702356.793          49.000                                                  
R 9  20347368.642   108653993.431          50.000    20347371.984    84508535.732          31.000  
R15  23122885.052   123561966.720          44.000                                                  
R16  19530834.114   104330479.119          52.000    19530837.777    81144494.411          29.000  
R22  23677454.397   126391848.492          40.000                                                  
C 1  37067895.198   193022274.094          45.000    37067896.538   156846442.404          41.000  
C 2  37741033.176   196527414.579          41.000    37741032.461   159694724.985          39.000  
C 3  36780103.236   191523645.296          46.000    36780102.736   155628677.883          42.000  
C 4  38412748.583   200025239.604          42.000    38412748.529   162537000.006          37.000  
C 5  40178606.674   209220566.215          36.000    40178608.568   170008911.636          36.000  
C 6  36408758.296   189590078.367          45.000    36408755.491   154057500.645          44.000  
C 8  36027045.410   187602346.151          46.000    36027040.978   152442234.851          45.000  
C 9  37562572.045   195598264.419          44.000    37562570.097   158939623.781          43.000  
C13  35807990.915   186461686.123          48.000    35807993.667   151515363.730          46.000  
C14  25089094.971   130645623.669          38.000    25089093.166   106160323.829          38.000  
C16  36839574.668   191833600.842          48.000    36839575.204   155880581.394          43.000  
C23  22883164.336   119158717.800          49.000    22883159.636    96826227.168          48.000  
C24  25088365.414   130641938.051          40.000    25088368.452   106159331.636          40.000  
C25  21679194.384   112889484.998          51.000    21679194.188    91733657.654          49.000  
C32  24983527.339   130095827.515          44.000    24983531.252   105713554.960          42.000  
C33  23500929.553   122375782.922          48.000    23500944.617    99442482.028          46.000  
> 2024  6 26 12 27 40.0000000  0 32                     
G10  20487817.930   107664282.224          50.000    20487820.682    83894295.802          47.000  
G12  21660555.081   113827228.724          45.000    21660556.797    88696666.934          43.000  
G15  25011243.569   131435158.007          34.000    25011249.091   102417120.728          32.000  
G18  25314596.716   133029115.780          32.000    25314606.454   103659084.024          35.000  
G23  20432378.232   107372994.172          46.000    20432380.072    83667335.711          49.000  
G24  23197377.935   121903277.806          40.000    23197383.493    94989702.789          41.000  
G25  20952306.760   110105357.439          46.000    20952311.406    85796526.518          44.000  
G28  22533184.869   118412884.725          43.000    22533187.352    92269887.232          44.000  
G32  22125301.654   116269392.578          47.000    22125305.836    90599621.470          44.000  
R 5  21896939.561   117051959.108          48.000                                                  
R 6  19946802.346   106439966.742          40.000                                                  
R 7  22547628.507   120699253.215          49.000                                                  
R 9  20346810.253   108651011.542          50.000    20346813.988    84506216.483          31.000  
R15  23123634.229   123565969.636          44.000                                                  
R16  19531056.297   104331665.723          52.000    19531059.210    81145417.321          29.000  
R22  23677743.178   126393391.671          40.000                                                  
C 1  37067904.383   193022322.392          45.000    37067905.901   156846481.660          41.000  
C 2  37741037.518   196527439.303          41.000    37741037.447   159694745.098          39.000  
C 3  36780112.296   191523692.611          46.000    36780111.742   155628716.333          42.000  
C 4  38412757.857   200025285.809          41.000    38412757.428   162537037.527          37.000  
C 5  40178606.299   209220565.584          36.000    40178608.711   170008911.092          36.000  
C 6  36408774.218   189590161.596          45.000    36408771.448   154057568.273          44.000  
C 8  36027183.180   187603063.853          46.000    36027178.820   152442818.043          45.000  
C 9  37562574.475   195598277.707          44.000    37562572.652   158939634.595          43.000  
C13  35808075.847   186462128.561          48.000    35808078.670   151515723.247          46.000  
C14  25089567.410   130648083.746          38.000    25089565.570   106162322.868          38.000  
C16  36839608.226   191833776.763          48.000    36839609.030   155880724.348          43.000  
C23  22882754.742   119156585.385          49.000    22882750.114    96824494.400          48.000  
C24  25088930.665   130644881.149          40.000    25088933.632   106161723.161          40.000  
C25  21679352.150   112890307.330          51.000    21679352.096    91734325.871          49.000  
C32  24983011.942   130093145.553          44.000    24983016.374   105711375.646          42.000  
C33  23501261.435   122377510.880          48.000    23501276.498    99443886.138          46.000  
> 2024  6 26 12 27 41.0000000  0 32                     
G10  20487604.913   107663162.661          50.000    20487607.897    83893423.416          47.000  
G12  21660506.227   113826971.065          45.000    21660508.282    88696466.159          43.000  
G15  25011772.028   131437935.421          34.000    25011777.871   102419284.954          32.000  
G18  25315190.861   133032237.731          32.000    25315200.867   103661516.738          35.000  
G23  20432681.416   107374588.041          46.000    20432683.596    83668577.710          49.000  
G24  23197981.783   121906452.771          40.000    23197986.662    94992176.795          41.000  
G25  20951912.319   110103284.756          46.000    20951916.679    85794911.424          44.000  
G28  22532753.921   118410619.618          43.000    22532757.031    92268122.221          44.000  
G32  22124980.334   116267703.516          47.000    22124983.961    90598305.304          44.000  
R 5  21897326.033   117054025.529          47.000                                                  
R 6  19946551.626   106438627.766          40.000                                                  
R 7  22547047.067   120696141.402          49.000                                                  
R 9  20346250.345   108648022.100          50.000    20346253.919    84503891.366          31.000  
R15  23124381.815   123569964.589          44.000                                                  
R16  19531276.997   104332845.002          52.000    19531279.749    81146334.512          29.000  
R22  23678030.780   126394927.279          40.000                                                  
C 1  37067912.173   193022362.764          44.000    37067913.585   156846514.444          41.000  
C 2  37741040.842   196527456.064          41.000    37741040.234   159694758.719          39.000  
C 3  36780119.979   191523731.965          46.000    36780119.283   155628748.314          43.000  
C 4  38412765.112   200025324.055          41.000    38412764.683   162537068.636          38.000  
C 5  40178604.655   209220556.995          37.000    40178606.942   170008904.129          35.000  
C 6  36408788.674   189590236.927          45.000    36408785.922   154057629.491          44.000  
C 8  36027319.431   187603773.806          47.000    36027315.232   152443394.931          45.000  
C 9  37562575.440   195598283.104          44.000    37562573.582   158939638.986          43.000  
C13  35808159.367   186462563.250          49.000    35808162.011   151516076.465          46.000  
C14  25090037.901   130650536.058          38.000    25090036.543   106164315.545          38.000  
C16  36839640.569   191833944.759          48.000    36839641.230   155880860.857          43.000  
C23  22882343.880   119154445.399          49.000    22882339.198    96822755.491          48.000  
C24  25089494.308   130647816.472          40.000    25089497.185   106164108.332          40.000  
C25  21679508.807   112891122.189          51.000    21679508.557    91734988.004          49.000  
C32  24982495.617   130090455.663          44.000    24982499.727   105709189.869          42.000  
C33  23501591.851   122379231.199          48.000    23501606.879    99445284.036          46.000  
> 2024  6 26 12 27 42.0000000  0 32                     
G10  20487394.398   107662056.081          50.000    20487397.525    83892561.139          47.000  
G12  21660459.750   113826726.472          45.000    21660462.162    88696275.563          43.000  
G15  25012302.827   131440725.269          34.000    25012308.473   102421458.886          32.000  
G18  25315787.096   133035371.942          32.000    25315796.889   103663958.987          34.000  
G23  20432987.012   107376194.898          46.000    20432989.370    83669829.776          49.000  
G24  23198588.437   121909640.172          40.000    23198594.333    94994660.475          41.000  
G25  20951520.345   110101225.019          46.000    20951525.634    85793306.442          43.000  
G28  22532325.101   118408367.241          43.000    22532328.156    92266367.161          44.000  
G32  22124661.282   116266026.895          47.000    22124664.749    90596998.860          44.000  
R 5  21897714.916   117056104.926          47.000                                                  
R 6  19946302.818   106437301.704          40.000                                                  
R 7  22546467.932   120693042.162          49.000                                                  
R 9  20345692.957   108645045.862          50.000    20345696.942    84501576.524          31.000  
R15  23125131.849   123573972.396          44.000                                                  
R16  19531500.307   104334037.700          52.000    19531504.220    81147262.208          30.000  
R22  23678320.651   126396476.048          40.000                                                  
C 1  37067922.252   193022415.374          45.000    37067923.735   156846557.208          41.000  
C 2  37741046.274   196527485.127          41.000    37741045.809   159694782.312          39.000  
C 3  36780129.790   191523783.598          46.000    36780129.200   155628790.282          43.000  
C 4  38412774.940   200025374.557          41.000    38412774.493   162537109.661          38.000  
C 5  40178604.834   209220560.650          36.000    40178607.496   170008907.085          35.000  
C 6  36408805.613   189590324.565          45.000    36408802.826   154057700.720          44.000  
C 8  36027458.005   187604496.215          47.000    36027453.896   152443981.960          45.000  
C 9  37562579.139   195598300.836          44.000    37562577.030   158939653.396          43.000  
C13  35808245.210   186463010.384          49.000    35808247.908   151516439.790          46.000  
C14  25090511.430   130653000.889          38.000    25090510.198   106166318.431          37.000  
C16  36839675.199   191834125.070          48.000    36839675.789   155881007.381          43.000  
C23  22881935.287   119152318.074          49.000    22881930.641    96821026.860          48.000  
C24  25090060.238   130650764.173          40.000    25090063.293   106166503.590          40.000  
C25  21679667.663   112891949.773          51.000    21679667.449    91735660.482          49.000  
C32  24981981.257   130087778.050          44.000    24981985.778   105707014.094          42.000  
C33  23501924.715   122380964.115          48.000    23501939.725    99446692.167          46.000  
> 2024  6 26 12 27 43.0000000  0 32                     
G10  20487183.240   107660946.607          50.000    20487186.099    83891696.602          47.000  
G12  21660412.772   113826479.093          45.000    21660414.380    88696082.783          43.000  
G15  25012833.108   131443511.756          34.000    25012839.148   102423630.180          32.000  
G18  25316382.671   133038502.417          32.000    25316392.624   103666398.319          34.000  
G23  20433292.304   107377798.894          46.000    20433294.609    83671079.655          49.000  
G24  23199194.304   121912824.169          40.000    23199199.200    94997141.513          41.000  
G25  20951127.744   110099162.378          45.000    20951132.354    85791699.180          43.000  
G28  22531896.030   118406111.715          43.000    22531899.282    92264609.556          43.000  
G32  22124341.623   116264346.885          47.000    22124345.805    90595689.766          44.000  
R 5  21898103.353   117058181.161          47.000                                                  
R 6  19946053.938   106435972.499          40.000                                                  
R 7  22545888.368   120689939.290          48.000                                                  
R 9  20345135.086   108642066.725          50.000    20345139.285    84499259.420          32.000  
R15  23125881.258   123577976.941          44.000                                                  
R16  19531723.080   104335227.708          52.000    19531728.172    81148187.749          31.000  
R22  23678610.255   126398021.836          40.000                                                  
C 1  37067931.526   193022464.573          45.000    37067933.062   156846597.189          41.000  
C 2  37741051.027   196527510.739          41.000    37741050.956   159694803.159          39.000  
C 3  36780139.189   191523831.809          46.000    36780138.313   155628829.445          43.000  
C 4  38412784.089   200025421.657          42.000    38412783.678   162537147.941          38.000  
C 5  40178605.781   209220560.906          37.000    40178607.389   170008907.269          35.000  
C 6  36408821.624   189590408.811          45.000    36408819.015   154057769.173          44.000  
C 8  36027596.240   187605215.400          46.000    36027591.934   152444566.356          45.000  
C 9  37562581.569   195598315.180          44.000    37562579.764   158939665.059          43.000  
C13  35808330.516   186463454.272          49.000    35808333.143   151516800.491          46.000  
C14  25090983.870   130655462.469          38.000    25090982.851   106168318.657          37.000  
C16  36839709.258   191834301.976          48.000    36839709.812   155881151.132          43.000  
C23  22881526.247   119150187.692          49.000    22881521.601    96819295.764          48.000  
C24  25090625.667   130653708.583          40.000    25090628.937   106168896.169          40.000  
C25  21679826.126   112892774.376          51.000    21679825.822    91736330.544          49.000  
C32  24981466.308   130085097.021          44.000    24981470.793   105704835.545          41.000  
C33  23502256.811   122382693.899          48.000    23502271.874    99448097.768          46.000  
> 2024  6 26 12 27 44.0000000  0 32                     
G10  20486972.993   107659842.388          50.000    20486975.924    83890836.186          47.000  
G12  21660366.617   113826237.048          45.000    21660368.618    88695894.184          43.000  
G15  25013364.372   131446303.045          34.000    25013369.768   102425805.180          32.000  
G18  25316979.282   133041637.368          32.000    25316989.181   103668841.144          34.000  
G23  20433598.543   107379408.139          46.000    20433600.795    83672333.624          49.000  
G24  23199800.903   121916012.846          40.000    23199806.336    94999626.215          41.000  
G25  20950736.270   110097104.928          46.000    20950740.791    85790095.967          44.000  
G28  22531467.477   118403861.167          43.000    22531470.586    92262855.898          44.000  
G32  22124022.822   116262671.585          47.000    22124026.217    90594384.333          44.000  
R 5  21898492.844   117060262.492          47.000                                                  
R 6  19945805.952   106434648.368          40.000                                                  
R 7  22545309.447   120686841.110          48.000                                                  
R 9  20344578.287   108639092.926          50.000    20344582.326    84496946.541          31.000  
R15  23126631.650   123581986.461          44.000                                                  
R16  19531946.907   104336423.273          52.000    19531951.339    81149117.619          30.000  
R22  23678900.751   126399572.932          40.000                                                  
C 1  37067942.050   193022518.376          45.000    37067943.248   156846640.903          41.000  
C 2  37741057.192   196527540.991          41.000    37741056.602   159694827.732          39.000  
C 3  36780149.445   191523884.626          45.000    36780148.534   155628872.368          42.000  
C 4  38412794.095   200025473.351          41.000    38412793.273   162537189.949          38.000  
C 5  40178606.156   209220565.756          37.000    40178608.265   170008911.251          35.000  
C 6  36408838.671   189590497.717          45.000    36408836.026   154057841.415          45.000  
C 8  36027735.118   187605939.392          46.000    36027731.026   152445154.649          45.000  
C 9  37562585.250   195598334.205          44.000    37562583.463   158939680.500          43.000  
C13  35808416.573   186463902.965          48.000    35808419.397   151517165.095          46.000  
C14  25091458.131   130657928.887          38.000    25091456.595   106170322.827          38.000  
C16  36839744.120   191834483.526          48.000    36839744.549   155881298.670          43.000  
C23  22881118.083   119148062.317          49.000    22881113.347    96817568.716          48.000  
C24  25091192.008   130656657.752          40.000    25091195.117   106171292.599          40.000  
C25  21679985.374   112893604.074          51.000    21679985.249    91737004.741          49.000  
C32  24980952.341   130082420.621          44.000    24980956.808   105702660.748          41.000  
C33  23502589.961   122384428.623          48.000    23502605.024    99449507.371          46.000  
> 2024  6 26 12 27 45.0000000  0 32                     
G10  20486761.710   107658731.233          50.000    20486764.891    83889970.371          47.000  
G12  21660319.335   113825988.148          45.000    21660320.854    88695700.233          43.000  
G15  25013894.063   131449086.830          34.000    25013899.353   102427974.373          32.000  
G18  25317574.320   133044764.598          32.000    25317583.273   103671277.956          34.000  
G23  20433903.639   107381010.451          46.000    20433905.944    83673582.160          49.000  
G24  23200406.342   121919194.070          39.000    23200412.095    95002105.077          41.000  
G25  20950343.562   110095040.517          45.000    20950348.101    85788487.335          44.000  
G28  22531037.977   118401603.408          43.000    22531040.872    92261096.612          44.000  
G32  22123702.484   116260988.823          47.000    22123706.469    90593073.112          44.000  
R 5  21898880.923   117062336.557          47.000                                                  
R 6  19945556.393   106433316.913          40.000                                                  
R 7  22544729.258   120683735.189          48.000                                                  
R 9  20344020.113   108636112.078          50.000    20344023.829    84494628.025          32.000  
R15  23127380.648   123585988.563          44.000                                                  
R16  19532169.484   104337611.984          52.000    19532174.684    81150042.216          30.000  
R22  23679190.104   126401116.940          40.000                                                  
C 1  37067951.039   193022564.708          44.000    37067952.182   156846678.559          41.000  
C 2  37741061.677   196527563.773          41.000    37741061.194   159694846.256          39.000  
C 3  36780158.023   191523929.975          46.000    36780157.218   155628909.216          42.000  
C 4  38412802.601   200025517.570          42.000    38412801.833   162537225.869          38.000  
C 5  40178605.513   209220563.148          36.000    40178607.728   170008909.093          36.000  
C 6  36408854.485   189590579.184          45.000    36408851.698   154057907.621          44.000  
C 8  36027872.799   187606656.132          46.000    36027868.743   152445737.059          45.000  
C 9  37562587.520   195598345.816          44.000    37562585.876   158939689.939          43.000  
C13  35808501.398   186464344.408          48.000    35808504.132   151517523.799          46.000  
C14  25091930.302   130660388.036          38.000    25091928.801   106172321.106          38.000  
C16  36839777.517   191834657.637          48.000    36839778.000   155881440.133          43.000  
C23  22880708.614   119145929.865          49.000    22880703.843    96815835.926          48.000  
C24  25091757.134   130659599.568          40.000    25091759.939   106173683.077          39.000  
C25  21680143.390   112894426.779          50.000    21680143.193    91737673.261          48.000  
C32  24980436.998   130079736.774          44.000    24980441.537   105700479.919          41.000  
C33  23502921.574   122386156.200          48.000    23502936.870    99450911.164          46.000  
> 2024  6 26 12 27 46.0000000  0 32                     
G10  20486550.373   107657621.460          50.000    20486553.482    83889105.597          47.000  
G12  21660272.143   113825740.727          45.000    21660273.537    88695507.458          43.000  
G15  25014423.951   131451871.530          34.000    25014430.063   102430144.308          32.000  
G18  25318169.430   133047892.409          32.000    25318178.544   103673715.234          35.000  
G23  20434208.717   107382614.174          46.000    20434210.772    83674831.819          49.000  
G24  23201012.102   121922376.165          39.000    23201017.319    95004584.600          41.000  
G25  20949951.051   110092977.456          46.000    20949955.286    85786879.764          43.000  
G28  22530608.388   118399346.796          43.000    22530611.461    92259338.209          44.000  
G32  22123382.360   116259306.938          47.000    22123386.327    90591762.518          44.000  
R 5  21899268.949   117064411.831          47.000                                                  
R 6  19945306.941   106431986.662          40.000                                                  
R 7  22544148.962   120680630.042          48.000                                                  
R 9  20343462.099   108633132.646          50.000    20343465.958    84492310.724          32.000  
R15  23128129.825   123589991.694          44.000                                                  
R16  19532392.275   104338802.323          52.000    19532396.992    81150967.994          31.000  
R22  23679479.690   126402662.358          40.000                                                  
C 1  37067960.062   193022611.852          45.000    37067961.188   156846716.858          41.000  
C 2  37741066.037   196527587.367          41.000    37741065.590   159694865.416          39.000  
C 3  36780166.689   191523976.124          46.000    36780166.171   155628946.721          42.000  
C 4  38412811.178   200025562.626          42.000    38412810.571   162537262.478          37.000  
C 5  40178605.120   209220561.339          36.000    40178607.514   170008907.669          36.000  
C 6  36408870.192   189590661.500          45.000    36408867.530   154057974.505          44.000  
C 8  36028010.623   187607373.857          46.000    36028006.549   152446320.279          45.000  
C 9  37562590.128   195598358.285          44.000    37562588.038   158939700.083          43.000  
C13  35808586.383   186464786.831          49.000    35808589.135   151517883.302          46.000  
C14  25092402.313   130662848.206          38.000    25092401.080   106174320.193          38.000  
C16  36839811.272   191834832.583          48.000    36839811.540   155881582.300          43.000  
C23  22880299.378   119143798.599          49.000    22880294.642    96814104.103          48.000  
C24  25092321.723   130662542.352          40.000    25092325.172   106176074.314          40.000  
C25  21680301.745   112895250.748          51.000    21680301.424    91738342.808          49.000  
C32  24979921.745   130077053.747          44.000    24979926.033   105698299.742          41.000  
C33  23503253.616   122387884.905          48.000    23503268.769    99452315.876          46.000  
> 2024  6 26 12 27 47.0000000  0 32                     
G10  20486341.770   107656525.543          50.000    20486344.540    83888251.643          47.000  
G12  21660227.721   113825507.253          45.000    21660228.757    88695325.526          43.000  
G15  25014956.252   131454669.609          34.000    25014962.917   102432324.645          32.000  
G18  25318767.078   133051033.305          32.000    25318776.477   103676162.681          34.000  
G23  20434516.618   107384231.759          46.000    20434518.494    83676092.275          49.000  
G24  23201619.898   121925571.554          39.000    23201625.456    95007074.527          41.000  
G25  20949560.970   110090928.219          46.000    20949565.438    85785282.963          43.000  
G28  22530181.693   118397103.766          43.000    22530184.570    92257590.402          44.000  
G32  22123064.810   116257638.369          47.000    22123068.491    90590462.351          44.000  
R 5  21899659.816   117066500.968          48.000                                                  
R 6  19945060.045   106430670.219          40.000                                                  
R 7  22543571.471   120677538.382          48.000                                                  
R 9  20342906.747   108630167.265          50.000    20342910.339    84490004.311          32.000  
R15  23128881.503   123594008.531          44.000                                                  
R16  19532617.853   104340006.938          52.000    19532623.125    81151904.940          31.000  
R22  23679771.866   126404221.822          40.000                                                  
C 1  37067971.731   193022672.121          45.000    37067972.749   156846765.820          41.000  
C 2  37741073.077   196527624.086          41.000    37741072.827   159694895.256          39.000  
C 3  36780178.036   191524035.428          46.000    36780177.536   155628994.905          43.000  
C 4  38412822.257   200025620.798          41.000    38412821.703   162537309.755          37.000  
C 5  40178607.264   209220572.670          36.000    40178609.712   170008916.855          33.000  
C 6  36408888.561   189590756.994          45.000    36408885.827   154058052.095          44.000  
C 8  36028151.181   187608104.917          46.000    36028146.820   152446914.325          45.000  
C 9  37562595.042   195598383.943          44.000    37562592.952   158939720.935          42.000  
C13  35808673.905   186465242.561          48.000    35808676.532   151518253.619          46.000  
C14  25092877.682   130665321.731          38.000    25092876.253   106176330.111          38.000  
C16  36839847.224   191835020.702          48.000    36839847.725   155881735.148          43.000  
C23  22879892.607   119141680.846          49.000    22879887.890    96812383.257          48.000  
C24  25092889.780   130665498.390          40.000    25092892.799   106178476.315          39.000  
C25  21680462.441   112896088.320          51.000    21680462.316    91739023.399          49.000  
C32  24979409.101   130074383.877          44.000    24979413.407   105696130.250          41.000  
C33  23503588.196   122389627.050          48.000    23503603.295    99453731.516          46.000  
> 2024  6 26 12 27 48.0000000  0 32                     
G10  20486131.058   107655417.507          50.000    20486134.043    83887388.245          47.000  
G12  21660181.261   113825261.737          45.000    21660182.155    88695134.219          43.000  
G15  25015486.283   131457455.084          34.000    25015492.304   102434495.189          32.000  
G18  25319362.206   133054161.236          32.000    25319371.354   103678600.062          34.000  
G23  20434822.107   107385837.220          46.000    20434824.269    83677343.283          49.000  
G24  23202225.426   121928754.294          40.000    23202231.376    95009554.575          41.000  
G25  20949168.817   110088866.827          45.000    20949173.213    85783676.684          43.000  
G28  22529752.676   118394848.325          43.000    22529755.624    92255832.939          44.000  
G32  22122745.026   116255957.162          47.000    22122748.367    90589152.326          44.000  
R 5  21900048.503   117068577.540          48.000                                                  
R 6  19944811.147   106429341.201          40.000                                                  
R 7  22542991.746   120674433.710          48.000                                                  
R 9  20342349.252   108627189.598          50.000    20342352.218    84487688.358          31.000  
R15  23129630.894   123598012.652          44.000                                                  
R16  19532841.109   104341199.446          52.000    19532845.880    81152832.416          30.000  
R22  23680061.827   126405768.930          40.000                                                  
C 1  37067980.737   193022719.815          45.000    37067982.023   156846804.591          41.000  
C 2  37741077.705   196527648.224          41.000    37741077.384   159694914.860          39.000  
C 3  36780187.024   191524082.127          46.000    36780186.684   155629032.852          43.000  
C 4  38412831.013   200025666.355          42.000    38412830.441   162537346.776          37.000  
C 5  40178607.300   209220571.414          37.000    40178609.694   170008915.849          35.000  
C 6  36408904.340   189590839.918          45.000    36408901.677   154058119.479          44.000  
C 8  36028289.112   187608823.605          46.000    36028284.877   152447498.316          45.000  
C 9  37562597.419   195598397.074          43.000    37562595.471   158939731.591          43.000  
C13  35808759.051   186465685.923          49.000    35808761.785   151518613.876          46.000  
C14  25093349.800   130667782.869          38.000    25093348.781   106178329.987          38.000  
C16  36839880.961   191835196.250          48.000    36839881.587   155881877.807          43.000  
C23  22879483.460   119139550.895          49.000    22879478.921    96810652.495          48.000  
C24  25093455.424   130668441.959          40.000    25093458.015   106180868.220          40.000  
C25  21680620.886   112896913.764          51.000    21680620.868    91739694.138          49.000  
C32  24978894.062   130071701.429          44.000    24978898.493   105693950.525          41.000  
C33  23503920.327   122391356.921          48.000    23503935.516    99455137.183          46.000  
> 2024  6 26 12 27 49.0000000  0 32                     
G10  20485918.864   107654302.082          50.000    20485921.919    83886519.080          47.000  
G12  21660132.979   113825008.922          45.000    21660134.963    88694937.210          43.000  
G15  25016014.777   131460232.637          34.000    25016020.459   102436659.412          32.000  
G18  25319955.957   133057281.036          32.000    25319964.535   103681031.045          34.000  
G23  20435126.094   107387435.314          46.000    20435128.275    83678588.558          49.000  
G24  23202829.399   121931929.089          39.000    23202836.082    95012028.443          41.000  
G25  20948775.019   110086798.030          45.000    20948779.165    85782064.636          44.000  
G28  22529322.247   118392585.264          43.000    22529324.534    92254069.491          44.000  
G32  22122423.527   116254268.044          47.000    22122427.315    90587836.121          44.000  
R 5  21900435.403   117070646.400          48.000                                                  
R 6  19944560.606   106428004.457          40.000                                                  
R 7  22542410.073   120671320.851          48.000                                                  
R 9  20341790.291   108624204.438          50.000    20341794.150    84485366.513          32.000  
R15  23130378.588   123602008.918          44.000                                                  
R16  19533062.935   104342384.696          52.000    19533066.777    81153754.309          30.000  
R22  23680350.251   126407308.488          40.000                                                  
C 1  37067988.403   193022759.590          45.000    37067989.636   156846836.917          41.000  
C 2  37741080.904   196527664.467          41.000    37741080.493   159694928.082          39.000  
C 3  36780194.636   191524120.926          46.000    36780193.886   155629064.374          42.000  
C 4  38412838.214   200025704.039          41.000    38412837.732   162537377.395          38.000  
C 5  40178605.584   209220562.261          36.000    40178607.961   170008908.403          36.000  
C 6  36408918.939   189590914.996          45.000    36408916.115   154058180.489          44.000  
C 8  36028425.613   187609534.610          46.000    36028421.414   152448076.054          45.000  
C 9  37562598.277   195598402.332          43.000    37562596.472   158939735.884          43.000  
C13  35808842.732   186466121.568          49.000    35808845.466   151518967.895          45.000  
C14  25093820.899   130670236.292          38.000    25093820.130   106180323.599          37.000  
C16  36839913.304   191835363.938          48.000    36839913.715   155882014.065          43.000  
C23  22879072.991   119137413.432          49.000    22879068.399    96808915.629          48.000  
C24  25094019.406   130671377.756          40.000    25094021.800   106183253.796          40.000  
C25  21680778.116   112897731.772          51.000    21680777.973    91740358.841          49.000  
C32  24978377.379   130069011.077          44.000    24978381.614   105691764.429          41.000  
C33  23504251.101   122393079.214          48.000    23504266.218    99456536.673          46.000  
> 2024  6 26 12 27 50.0000000  0 32                     
G10  20485709.546   107653202.712          50.000    20485712.351    83885662.419          48.000  
G12  21660087.913   113824772.250          45.000    21660089.986    88694752.769          43.000  
G15  25016546.148   131463025.774          34.000    25016552.098   102438835.931          32.000  
G18  25320552.461   133060416.112          32.000    25320560.752   103683473.998          34.000  
G23  20435433.245   107389049.466          46.000    20435435.318    83679846.335          49.000  
G24  23203436.678   121935119.409          39.000    23203443.772    95014514.412          42.000  
G25  20948384.260   110084745.224          45.000    20948389.156    85780465.045          44.000  
G28  22528894.463   118390337.972          43.000    22528897.429    92252318.376          44.000  
G32  22122105.047   116252594.463          47.000    22122109.514    90586532.044          44.000  
R 5  21900825.448   117072731.366          48.000                                                  
R 6  19944312.923   106426683.747          40.000                                                  
R 7  22541831.314   120668223.670          48.000                                                  
R 9  20341234.368   108621235.577          50.000    20341237.084    84483057.448          31.000  
R15  23131129.283   123606021.144          44.000                                                  
R16  19533287.834   104343586.481          52.000    19533292.159    81154689.028          30.000  
R22  23680641.677   126408864.336          40.000                                                  
C 1  37067999.070   193022814.713          44.000    37068000.178   156846881.697          41.000  
C 2  37741086.837   196527696.042          41.000    37741086.461   159694953.719          38.000  
C 3  36780205.036   191524175.039          45.000    36780204.375   155629108.355          42.000  
C 4  38412848.364   200025757.019          41.000    38412847.953   162537420.457          37.000  
C 5  40178606.638   209220568.477          36.000    40178608.836   170008913.431          35.000  
C 6  36408936.200   189591005.434          45.000    36408933.538   154058253.980          44.000  
C 8  36028565.384   187610261.120          46.000    36028560.989   152448666.412          45.000  
C 9  37562602.369   195598422.991          43.000    37562600.457   158939752.660          43.000  
C13  35808929.307   186466572.741          48.000    35808932.095   151519334.495          45.000  
C14  25094295.375   130672705.249          37.000    25094294.321   106182329.829          38.000  
C16  36839948.613   191835546.967          48.000    36839948.863   155882162.784          43.000  
C23  22878665.631   119135291.660          49.000    22878660.985    96807191.523          48.000  
C24  25094585.979   130674329.019          40.000    25094588.445   106185651.939          39.000  
C25  21680938.329   112898565.570          51.000    21680938.043    91741036.361          49.000  
C32  24977863.591   130066336.093          44.000    24977868.005   105689590.776          41.000  
C33  23504584.805   122394817.137          48.000    23504600.047    99457948.885          46.000  
> 2024  6 26 12 27 51.0000000  0 32                     
G10  20485500.532   107652104.644          50.000    20485503.731    83884806.791          48.000  
G12  21660043.205   113824536.972          45.000    21660044.760    88694569.470          43.000  
G15  25017077.912   131465819.703          34.000    25017084.845   102441013.039          32.000  
G18  25321149.429   133063551.617          32.000    25321157.667   103685917.297          34.000  
G23  20435740.896   107390664.945          46.000    20435742.683    83681105.151          49.000  
G24  23204044.189   121938310.505          40.000    23204050.514    95017000.966          41.000  
G25  20947994.072   110082693.722          46.000    20947998.360    85778866.484          43.000  
G28  22528466.928   118388091.740          43.000    22528469.716    92250568.060          44.000  
G32  22121786.835   116250921.669          47.000    22121790.516    90585228.556          44.000  
R 5  21901215.744   117074817.455          48.000                                                  
R 6  19944065.920   106425364.142          40.000                                                  
R 7  22541253.090   120665127.182          49.000                                                  
R 9  20340678.659   108618268.093          51.000    20340681.607    84480749.361          31.000  
R15  23131880.265   123610034.346          44.000                                                  
R16  19533513.234   104344789.825          53.000    19533518.095    81155624.975          30.000  
R22  23680933.567   126410421.475          41.000                                                  
C 1  37068009.685   193022870.516          44.000    37068010.953   156846927.046          41.000  
C 2  37741093.359   196527728.310          41.000    37741092.733   159694979.951          39.000  
C 3  36780215.579   191524229.886          46.000    36780214.882   155629152.918          42.000  
C 4  38412858.603   200025810.725          41.000    38412858.335   162537464.105          37.000  
C 5  40178608.193   209220575.337          37.000    40178610.319   170008919.048          35.000  
C 6  36408953.623   189591096.613          45.000    36408951.192   154058328.077          44.000  
C 8  36028704.977   187610988.566          47.000    36028700.707   152449257.510          45.000  
C 9  37562606.496   195598444.404          44.000    37562604.656   158939770.064          43.000  
C13  35809016.043   186467024.792          49.000    35809018.795   151519701.824          46.000  
C14  25094769.511   130675175.140          38.000    25094768.707   106184336.822          38.000  
C16  36839983.797   191835730.756          48.000    36839984.351   155882312.135          43.000  
C23  22878258.271   119133170.999          49.000    22878253.768    96805468.310          48.000  
C24  25095152.820   130677281.131          41.000    25095155.393   106188050.758          40.000  
C25  21681098.543   112899400.542          51.000    21681098.489    91741714.849          49.000  
C32  24977349.874   130063661.824          44.000    24977354.288   105687417.706          42.000  
C33  23504918.723   122396556.092          48.000    23504934.055    99459361.919          46.000  
> 2024  6 26 12 27 52.0000000  0 32                     
G10  20485289.445   107650994.627          50.000    20485292.251    83883941.827          48.000  
G12  21659996.227   113824289.827          45.000    21659997.818    88694376.887          43.000  
G15  25017607.085   131468601.173          35.000    25017614.716   102443180.370          32.000  
G18  25321743.735   133066674.452          33.000    25321752.420   103688350.638          34.000  
G23  20436045.920   107392268.456          46.000    20436048.243    83682354.639          49.000  
G24  23204648.787   121941489.096          39.000    23204654.898    95019477.800          41.000  
G25  20947601.257   110080630.209          45.000    20947606.296    85777258.545          44.000  
G28  22528037.286   118385833.274          43.000    22528040.145    92248808.201          44.000  
G32  22121465.926   116249236.374          47.000    22121470.053    90583915.360          45.000  
R 5  21901603.644   117076891.159          48.000                                                  
R 6  19943816.129   106424032.133          40.000                                                  
R 7  22540672.114   120662017.832          48.000                                                  
R 9  20340120.681   108615288.444          50.000    20340123.272    84478431.912          31.000  
R15  23132629.138   123614035.030          44.000                                                  
R16  19533736.204   104345981.241          52.000    19533741.618    81156551.585          30.000  
R22  23681222.795   126411966.419          40.000                                                  
C 1  37068018.083   193022913.897          44.000    37068019.298   156846962.289          41.000  
C 2  37741096.915   196527748.164          41.000    37741096.504   159694996.074          38.000  
C 3  36780223.691   191524272.284          45.000    36780222.976   155629187.367          42.000  
C 4  38412866.912   200025851.998          41.000    38412866.233   162537497.641          37.000  
C 5  40178607.603   209220569.777          36.000    40178609.140   170008914.521          35.000  
C 6  36408969.008   189591175.405          45.000    36408966.184   154058392.092          44.000  
C 8  36028842.336   187611703.767          46.000    36028837.941   152449838.667          45.000  
C 9  37562608.230   195598453.462          43.000    37562606.389   158939777.415          43.000  
C13  35809100.671   186467464.598          48.000    35809103.244   151520059.205          45.000  
C14  25095241.611   130677632.779          38.000    25095240.825   106186333.870          38.000  
C16  36840016.730   191835902.126          48.000    36840017.212   155882451.389          43.000  
C23  22877848.731   119131038.283          49.000    22877844.174    96803735.310          48.000  
C24  25095717.320   130680220.938          40.000    25095720.143   106190439.586          40.000  
C25  21681256.541   112900223.538          51.000    21681256.434    91742383.605          49.000  
C32  24976833.996   130060975.128          43.000    24976838.320   105685234.552          42.000  
C33  23505250.462   122398282.925          48.000    23505265.615    99460765.114          46.000  
> 2024  6 26 12 27 53.0000000  0 32                     
G10  20485080.110   107649894.796          50.000    20485083.219    83883084.827          47.000  
G12  21659951.055   113824052.964          45.000    21659952.716    88694192.296          43.000  
G15  25018138.332   131471392.365          35.000    25018144.621   102445355.403          32.000  
G18                                                  25322348.423   103690791.307          34.000  
G23  20436352.821   107393882.189          46.000    20436355.376    83683612.074          49.000  
G24  23205255.834   121944677.360          39.000    23205261.391    95021962.145          41.000  
G25  20947210.604   110078576.876          46.000    20947215.393    85775658.540          43.000  
G28  22527609.054   118383584.721          43.000    22527612.485    92247056.093          43.000  
G32  22121147.053   116247560.760          47.000    22121150.984    90582609.680          44.000  
R 5  21901993.421   117078975.015          48.000                                                  
R 6  19943568.571   106422710.219          40.000                                                  
R 7  22540092.890   120658918.209          48.000                                                  
R 9  20339564.704   108612319.177          50.000    20339568.510    84476122.463          31.000  
R15  23133379.744   123618045.675          44.000                                                  
R16  19533961.229   104347183.243          52.000    19533966.321    81157486.522          29.000  
R22  23681514.132   126413521.712          40.000                                                  
C 1  37068027.947   193022966.804          44.000    37068029.466   156847005.271          41.000  
C 2  37741102.758   196527777.512          41.000    37741101.989   159695019.918          39.000  
C 3  36780233.573   191524324.199          45.000    36780232.930   155629229.555          42.000  
C 4  38412876.418   200025902.803          41.000    38412875.918   162537538.907          37.000  
C 5  40178608.050   209220573.781          36.000    40178610.051   170008917.789          35.000  
C 6  36408985.965   189591263.749          45.000    36408983.124   154058463.877          44.000  
C 8  36028981.500   187612428.640          46.000    36028977.158   152450427.695          45.000  
C 9  37562611.911   195598472.075          43.000    37562610.017   158939792.556          43.000  
C13  35809187.014   186467914.134          48.000    35809189.587   151520424.494          46.000  
C14  25095715.587   130680100.178          38.000    25095714.801   106188338.840          37.000  
C16  36840051.449   191836083.047          48.000    36840051.825   155882598.384          43.000  
C23  22877441.102   119128915.481          49.000    22877436.492    96802010.355          48.000  
C24  25096283.625   130683170.398          40.000    25096286.502   106192836.262          39.000  
C25  21681416.576   112901056.521          51.000    21681416.415    91743060.477          49.000  
C32  24976319.975   130058297.977          44.000    24976324.317   105683059.143          41.000  
C33  23505584.023   122400019.588          48.000    23505599.015    99462176.310          46.000  
> 2024  6 26 12 27 54.0000000  0 32                     
G10  20484869.738   107648789.383          50.000    20484872.918    83882223.473          47.000  
G12  21659904.845   113823810.596          45.000    21659906.507    88694003.422          43.000  
G15  25018668.523   131474177.444          35.000    25018674.492   102447525.592          32.000  
G18                                                  25322942.765   103693227.026          34.000  
G23  20436659.149   107395490.337          46.000    20436661.204    83684865.183          49.000  
G24  23205861.236   121947859.485          39.000    23205866.382    95024441.695          41.000  
G25  20946818.772   110076517.911          46.000    20946823.383    85774054.150          43.000  
G28  22527180.055   118381330.343          43.000    22527182.521    92245299.439          44.000  
G32  22120827.162   116245879.054          47.000    22120830.789    90581299.248          44.000  
R 5  21902382.108   117081052.967          48.000                                                  
R 6  19943319.977   106421382.411          40.000                                                  
R 7  22539512.844   120655812.252          48.000                                                  
R 9  20339007.566   108609344.227          50.000    20339010.961    84473808.595          30.000  
R15  23134129.153   123622050.263          44.000                                                  
R16  19534185.217   104348379.811          52.000    19534190.720    81158417.188          29.000  
R22  23681804.485   126415071.289          40.000                                                  
C 1  37068037.096   193023013.575          44.000    37068038.382   156847043.291          41.000  
C 2  37741107.082   196527800.771          41.000    37741106.546   159695038.841          39.000  
C 3  36780242.489   191524370.014          45.000    36780241.757   155629266.779          42.000  
C 4  38412885.085   200025947.463          41.000    38412884.531   162537575.200          37.000  
C 5  40178607.568   209220571.635          36.000    40178609.801   170008916.009          35.000  
C 6  36409001.511   189591346.012          45.000    36408998.974   154058530.730          44.000  
C 8  36029119.467   187613147.610          46.000    36029115.250   152451011.926          45.000  
C 9  37562614.216   195598484.651          43.000    37562612.429   158939802.766          42.000  
C13  35809272.124   186468357.770          48.000    35809274.876   151520784.982          45.000  
C14  25096188.258   130682561.665          38.000    25096187.526   106190338.964          38.000  
C16  36840085.025   191836257.883          48.000    36840085.383   155882740.468          43.000  
C23  22877032.188   119126786.946          49.000    22877027.703    96800280.737          48.000  
C24  25096848.483   130686113.845          40.000    25096851.771   106195228.071          40.000  
C25  21681575.396   112901883.861          51.000    21681575.288    91743732.746          48.000  
C32  24975804.561   130055614.720          43.000    24975808.850   105680878.792          41.000  
C33  23505916.351   122401750.460          48.000    23505931.557    99463582.768          46.000  
> 2024  6 26 12 27 55.0000000  0 32                     
G10  20484659.634   107647685.922          50.000    20484662.618    83881363.633          47.000  
G12  21659859.047   113823570.280          45.000    21659860.619    88693816.173          43.000  
G15  25019198.733   131476964.049          35.000    25019204.326   102449696.913          32.000  
G18                                                  25323537.499   103695663.645          35.000  
G23  20436965.371   107397100.440          46.000    20436967.587    83686119.818          49.000  
G24  23206466.960   121951043.029          39.000    23206472.750    95026922.416          41.000  
G25  20946427.226   110074460.875          46.000    20946432.230    85772451.273          43.000  
G28  22526751.502   118379077.649          43.000    22526754.057    92243544.084          44.000  
G32  22120507.378   116244198.760          47.000    22120511.702    90579989.967          44.000  
R 5  21902771.063   117083132.665          47.000                                                  
R 6  19943071.312   106420056.308          40.000                                                  
R 7  22538932.601   120652707.655          48.000                                                  
R 9  20338450.838   108606371.272          50.000    20338454.430    84471496.331          31.000  
R15  23134878.812   123626056.452          44.000                                                  
R16  19534409.580   104349578.577          52.000    19534413.833    81159349.573          29.000  
R22  23682095.250   126416622.835          41.000                                                  
C 1  37068046.388   193023061.708          45.000    37068047.621   156847082.407          41.000  
C 2  37741112.103   196527825.368          41.000    37741111.353   159695058.835          38.000  
C 3  36780251.710   191524417.169          46.000    36780250.852   155629305.099          42.000  
C 4  38412893.733   200025993.490          41.000    38412893.340   162537612.629          36.000  
C 5  40178607.049   209220570.839          37.000    40178609.444   170008915.404          35.000  
C 6  36409017.576   189591429.678          45.000    36409015.038   154058598.715          44.000  
C 8  36029257.827   187613868.155          46.000    36029253.681   152451597.419          45.000  
C 9  37562616.968   195598498.620          44.000    37562614.895   158939814.126          42.000  
C13  35809357.753   186468802.947          48.000    35809360.290   151521146.722          46.000  
C14  25096660.912   130685024.722          38.000    25096660.626   106192340.416          38.000  
C16  36840118.744   191836434.102          48.000    36840119.119   155882883.661          43.000  
C23  22876623.880   119124660.129          49.000    22876619.324    96798552.545          48.000  
C24  25097414.252   130689058.801          40.000    25097417.540   106197621.082          39.000  
C25  21681734.734   112902713.012          51.000    21681734.501    91744406.506          48.000  
C32  24975289.665   130052932.816          44.000    24975293.990   105678699.534          41.000  
C33  23506249.108   122403482.989          48.000    23506264.225    99464990.601          46.000  
> 2024  6 26 12 27 56.0000000  0 32                     
G10  20484452.389   107646596.834          50.000    20484455.855    83880514.998          47.000  
G12  21659816.072   113823344.412          45.000    21659818.055    88693640.177          43.000  
G15  25019731.641   131479764.481          34.000    25019737.877   102451879.098          32.000  
G18                                                  25324135.022   103698110.847          34.000  
G23  20437274.559   107398724.930          46.000    20437276.488    83687385.645          49.000  
G24  23207075.990   121954240.410          39.000    23207081.154    95029413.889          41.000  
G25  20946038.593   110072418.167          45.000    20946043.364    85770859.555          43.000  
G28  22526325.326   118376839.040          43.000    22526328.167    92241799.713          44.000  
G32  22120190.256   116242532.316          47.000    22120193.991    90578691.423          44.000  
R 5  21903162.788   117085226.741          48.000                                                  
R 6  19942825.291   106418744.564          40.000                                                  
R 7  22538355.431   120649617.041          48.000                                                  
R 9  20337896.827   108603412.928          50.000    20337900.562    84469195.397          31.000  
R15  23135631.312   123630076.914          44.000                                                  
R16  19534636.731   104350792.144          52.000    19534640.734    81160293.417          29.000  
R22  23682388.606   126418188.896          40.000                                                  
C 1  37068058.163   193023123.512          44.000    37068059.307   156847132.629          41.000  
C 2  37741119.197   196527863.646          41.000    37741118.697   159695089.908          39.000  
C 3  36780263.450   191524477.977          46.000    36780262.538   155629354.514          42.000  
C 4  38412905.277   200026053.161          41.000    38412904.848   162537661.064          37.000  
C 5  40178609.247   209220583.711          37.000    40178612.089   170008925.862          35.000  
C 6  36409036.428   189591527.010          45.000    36409033.765   154058677.807          44.000  
C 8  36029398.814   187614602.545          47.000    36029394.614   152452194.168          45.000  
C 9  37562622.364   195598526.284          43.000    37562620.273   158939836.606          43.000  
C13  35809445.954   186469261.965          49.000    35809448.438   151521519.698          45.000  
C14  25097137.032   130687501.602          38.000    25097136.299   106194353.104          38.000  
C16  36840155.233   191836624.003          48.000    36840155.644   155883037.974          43.000  
C23  22876218.093   119122547.369          49.000    22876213.590    96796835.744          48.000  
C24  25097982.576   130692017.555          40.000    25097985.560   106200025.281          40.000  
C25  21681896.681   112903556.271          51.000    21681896.520    91745091.726          48.000  
C32  24974777.057   130050264.601          44.000    24974781.649   105676531.386          41.000  
C33  23506584.456   122405229.489          48.000    23506599.519    99466409.769          46.000  
> 2024  6 26 12 27 57.0000000  0 32                     
G10  20484242.821   107645495.398          50.000    20484245.948    83879656.731          47.000  
G12  21659770.863   113823106.285          45.000    21659772.829    88693454.642          43.000  
G15  25020262.029   131482552.048          34.000    25020268.087   102454051.224          32.000  
G18                                                  25324730.006   103700547.808          34.000  
G23  20437581.316   107400337.077          46.000    20437583.335    83688641.864          49.000  
G24  23207681.875   121957424.894          39.000    23207687.700    95031895.271          41.000  
G25  20945647.547   110070363.079          45.000    20945651.639    85769258.181          43.000  
G28  22525897.202   118374587.831          43.000    22525899.561    92240045.545          44.000  
G32  22119870.722   116240853.010          47.000    22119874.886    90577382.894          44.000  
R 5  21903552.243   117087308.045          48.000                                                  
R 6  19942577.198   106417420.031          40.000                                                  
R 7  22537775.849   120646513.224          48.000                                                  
R 9  20337340.547   108600442.051          51.000    20337344.799    84466884.712          31.000  
R15  23136380.989   123634084.459          44.000                                                  
R16  19534861.684   104351993.391          52.000    19534867.277    81161227.788          29.000  
R22  23682679.746   126419742.404          40.000                                                  
C 1  37068067.723   193023172.470          44.000    37068068.974   156847172.413          41.000  
C 2  37741123.611   196527889.083          41.000    37741123.593   159695110.590          38.000  
C 3  36780272.474   191524525.972          45.000    36780271.741   155629393.520          42.000  
C 4  38412914.568   200026100.014          41.000    38412913.550   162537699.171          37.000  
C 5  40178609.444   209220583.749          36.000    40178611.963   170008925.886          34.000  
C 6  36409052.742   189591611.582          45.000    36409050.079   154058746.522          44.000  
C 8  36029537.620   187615324.332          46.000    36029533.260   152452780.670          45.000  
C 9  37562624.991   195598541.184          43.000    37562623.365   158939848.713          42.000  
C13  35809531.547   186469708.328          48.000    35809534.227   151521882.414          45.000  
C14  25097610.454   130689965.881          38.000    25097609.453   106196355.536          38.000  
C16  36840189.202   191836801.113          48.000    36840189.649   155883181.887          43.000  
C23  22875809.786   119120422.168          49.000    22875805.551    96795108.845          48.000  
C24  25098548.524   130694963.616          40.000    25098551.347   106202419.199          39.000  
C25  21682056.197   112904387.193          51.000    21682056.108    91745766.918          48.000  
C32  24974262.125   130047583.586          44.000    24974266.932   105674352.842          41.000  
C33  23506917.284   122406963.487          48.000    23506932.634    99467818.791          46.000  
> 2024  6 26 12 27 58.0000000  0 32                     
G10  20484031.591   107644385.798          50.000    20484034.843    83878792.091          47.000  
G12  21659723.921   113822860.073          45.000    21659725.798    88693262.761          43.000  
G15  25020790.845   131485330.921          34.000    25020797.206   102456216.593          33.000  
G18                                                  25325323.687   103702977.789          34.000  
G23  20437886.305   107401941.082          46.000    20437888.628    83689891.734          49.000  
G24  23208285.884   121960600.684          39.000    23208291.745    95034369.923          41.000  
G25  20945254.804   110068299.804          46.000    20945259.414    85767650.459          43.000  
G28  22525467.148   118372328.197          43.000    22525470.204    92238284.789          44.000  
G32  22119549.419   116239165.022          47.000    22119552.957    90576067.555          44.000  
R 5  21903939.894   117089380.827          47.000                                                  
R 6  19942327.407   106416086.949          40.000                                                  
R 7  22537194.320   120643400.431          48.000                                                  
R 9  20336782.604   108597462.890          50.000    20336786.375    84464567.564          31.000  
R15  23137129.308   123638083.374          44.000                                                  
R16  19535084.994   104353186.555          52.000    19535089.336    81162155.728          29.000  
R22  23682969.367   126421287.592          41.000                                                  
C 1  37068075.228   193023212.781          45.000    37068076.836   156847205.188          41.000  
C 2  37741127.203   196527905.855          41.000    37741126.792   159695124.238          38.000  
C 3  36780279.979   191524565.297          46.000    36780279.228   155629425.462          42.000  
C 4  38412921.537   200026138.187          41.000    38412920.858   162537730.197          37.000  
C 5  40178607.514   209220575.145          37.000    40178610.266   170008918.873          35.000  
C 6  36409067.323   189591687.533          45.000    36409064.625   154058808.229          44.000  
C 8  36029674.622   187616037.632          46.000    36029670.298   152453360.301          45.000  
C 9  37562626.581   195598547.470          44.000    37562624.544   158939853.807          42.000  
C13  35809615.674   186470146.238          49.000    35809618.230   151522238.262          45.000  
C14  25098081.946   130692421.729          38.000    25098081.070   106198351.100          38.000  
C16  36840221.670   191836969.586          48.000    36840221.956   155883318.778          43.000  
C23  22875400.228   119118288.690          49.000    22875395.778    96793375.224          48.000  
C24  25099112.828   130697901.117          40.000    25099115.508   106204806.180          39.000  
C25  21682214.267   112905209.904          51.000    21682214.088    91746435.436          48.000  
C32  24973745.728   130044893.912          44.000    24973750.106   105672167.261          41.000  
C33  23507248.844   122408689.138          48.000    23507264.033    99469221.010          46.000  
> 2024  6 26 12 27 59.0000000  0 32                     
G10  20483823.542   107643291.706          50.000    20483826.759    83877939.564          47.000  
G12  21659680.250   113822629.463          45.000    21659681.322    88693083.088          43.000  
G15  25021322.734   131488124.901          34.000    25021328.578   102458393.706          32.000  
G18                                                  25325919.672   103705419.220          35.000  
G23  20438194.456   107403560.587          46.000    20438196.904    83691153.694          49.000  
G24  23208892.859   121963791.453          39.000    23208899.184    95036856.225          41.000  
G25  20944865.241   110066252.011          45.000    20944869.852    85766054.760          43.000  
G28  22525039.882   118370083.799          43.000    22525042.866    92236535.910          44.000  
G32  22119231.100   116237491.999          47.000    22119235.300    90574763.887          44.000  
R 5  21904330.636   117091469.181          47.000                                                  
R 6  19942080.171   106414769.383          40.000                                                  
R 7  22536615.399   120640302.748          48.000                                                  
R 9  20336227.735   108594499.507          50.000    20336231.113    84462262.729          31.000  
R15  23137880.772   123642097.668          44.000                                                  
R16  19535311.358   104354395.705          52.000    19535314.896    81163096.165          29.000  
R22  23683262.062   126422848.513          41.000                                                  
C 1  37068085.735   193023267.854          44.000    37068087.326   156847249.937          41.000  
C 2  37741133.117   196527937.434          41.000    37741132.885   159695149.881          39.000  
C 3  36780290.146   191524619.408          46.000    36780289.735   155629469.443          42.000  
C 4  38412931.741   200026191.161          41.000    38412931.580   162537773.231          37.000  
C 5  40178609.033   209220581.312          37.000    40178611.552   170008923.922          35.000  
C 6  36409084.585   189591778.282          45.000    36409081.976   154058881.982          44.000  
C 8  36029814.519   187616765.930          46.000    36029810.266   152453952.098          45.000  
C 9  37562630.387   195598568.595          43.000    37562628.279   158939870.987          43.000  
C13  35809702.696   186470599.132          48.000    35809705.287   151522606.270          45.000  
C14  25098556.726   130694892.553          37.000    25098555.832   106200358.840          38.000  
C16  36840256.800   191837152.874          48.000    36840257.229   155883467.732          43.000  
C23  22874993.493   119116170.375          49.000    22874988.972    96791653.922          48.000  
C24  25099679.687   130700853.575          40.000    25099682.564   106207205.273          39.000  
C25  21682375.285   112906047.860          51.000    21682374.999    91747116.343          48.000  
C32  24973232.297   130042219.035          44.000    24973236.229   105669993.700          41.000  
C33  23507583.156   122410429.882          48.000    23507598.219    99470635.505          46.000  
> 2024  6 26 12 28  0.0000000  0 32                     
G10  20483615.565   107642198.967          50.000    20483618.727    83877088.077          47.000  
G12  21659636.542   113822400.297          45.000    21659637.560    88692904.499          43.000  
G15  25021854.606   131490919.652          34.000    25021860.395   102460571.393          32.000  
G18                                                  25326515.586   103707861.142          35.000  
G23  20438502.982   107405181.464          46.000    20438505.127    83692416.709          49.000  
G24  23209500.227   121966983.009          39.000    23209505.909    95039343.161          41.000  
G25  20944475.750   110064205.535          46.000    20944480.164    85764460.132          43.000  
G28  22524613.223   118367840.484          43.000    22524615.618    92234787.895          44.000  
G32  22118912.943   116235819.824          47.000    22118916.516    90573460.937          44.000  
R 5  21904721.557   117093558.685          48.000                                                  
R 6  19941833.757   106413452.913          40.000                                                  
R 7  22536037.033   120637205.773          48.000                                                  
R 9  20335673.188   108591537.507          51.000    20335677.173    84459958.949          31.000  
R15  23138632.200   123646112.953          44.000                                                  
R16  19535538.027   104355606.441          52.000    19535543.388    81164037.898          29.000  
R22  23683554.828   126424410.755          41.000                                                  
C 1  37068096.421   193023323.683          45.000    37068098.065   156847295.308          41.000  
C 2  37741139.782   196527969.751          41.000    37741139.121   159695176.127          39.000  
C 3  36780300.778   191524674.257          46.000    36780300.260   155629514.008          42.000  
C 4  38412941.908   200026244.859          42.000    38412941.461   162537816.848          37.000  
C 5  40178610.427   209220588.279          37.000    40178612.946   170008929.553          35.000  
C 6  36409102.132   189591869.842          45.000    36409099.577   154058956.370          45.000  
C 8  36029954.594   187617495.167          46.000    36029950.109   152454544.668          45.000  
C 9  37562634.461   195598590.552          44.000    37562632.657   158939888.814          43.000  
C13  35809789.736   186471052.948          49.000    35809792.363   151522975.033          46.000  
C14  25099031.291   130697364.348          38.000    25099030.326   106202367.376          37.000  
C16  36840292.020   191837336.936          48.000    36840292.610   155883617.302          43.000  
C23  22874586.865   119114053.180          49.000    22874582.434    96789933.530          48.000  
C24  25100246.707   130703806.876          40.000    25100249.780   106209605.087          40.000  
C25  21682536.320   112906887.028          51.000    21682536.106    91747798.236          49.000  
C32  24972718.509   130039544.935          44.000    24972722.870   105667820.779          41.000  
C33  23507917.574   122412171.689          48.000    23507932.817    99472050.863          46.000  
> 2024  6 26 12 28  1.0000000  0 32                     
G10  20483405.264   107641093.338          50.000    20483408.463    83876226.561          47.000  
G12  21659590.476   113822158.320          45.000    21659591.709    88692715.954          43.000  
G15  25022383.708   131493701.039          34.000    25022389.658   102462738.751          32.000  
G18                                                  25327109.803   103710292.292          34.000  
G23  20438809.061   107406789.454          46.000    20438811.491    83693669.686          49.000  
G24  23210104.825   121970161.143          39.000    23210111.312    95041819.636          41.000  
G25  20944083.918   110062146.113          46.000    20944088.439    85762855.364          43.000  
G28  22524183.831   118365584.028          43.000    22524186.565    92233029.606          44.000  
G32  22118591.979   116234134.215          47.000    22118595.785    90572147.451          44.000  
R 5  21905109.886   117095634.843          47.000                                                  
R 6  19941584.556   106412123.088          40.000                                                  
R 7  22535455.896   120634095.021          48.000                                                  
R 9  20335115.996   108588562.432          50.000    20335119.856    84457645.025          31.000  
R15  23139381.144   123650114.744          44.000                                                  
R16  19535762.301   104356804.297          52.000    19535767.251    81164969.482          29.000  
R22  23683844.913   126425959.867          41.000                                                  
C 1  37068104.694   193023366.148          45.000    37068106.177   156847329.821          41.000  
C 2  37741143.267   196527988.695          41.000    37741142.641   159695191.533          38.000  
C 3  36780308.784   191524715.766          46.000    36780308.158   155629547.725          42.000  
C 4  38412949.574   200026285.221          41.000    38412949.502   162537849.646          38.000  
C 5  40178609.551   209220581.824          37.000    40178611.552   170008924.303          35.000  
C 6  36409116.981   189591948.058          45.000    36409114.515   154059019.932          44.000  
C 8  36030092.114   187618211.247          46.000    36030087.682   152455126.536          45.000  
C 9  37562636.445   195598599.185          44.000    37562634.318   158939895.839          43.000  
C13  35809874.346   186471493.618          49.000    35809876.955   151523333.111          46.000  
C14  25099503.373   130699822.944          37.000    25099502.605   106204365.224          38.000  
C16  36840324.756   191837507.678          48.000    36840325.399   155883756.039          43.000  
C23  22874177.718   119111923.034          49.000    22874173.251    96788202.609          48.000  
C24  25100811.368   130706746.953          40.000    25100814.459   106211994.138          40.000  
C25  21682695.015   112907713.321          51.000    21682694.890    91748469.665          49.000  
C32  24972202.470   130036857.471          44.000    24972206.759   105665636.992          41.000  
C33  23508249.563   122413900.458          48.000    23508264.716    99473455.625          46.000  
> 2024  6 26 12 28  2.0000000  0 31                     
G10  20483197.376   107640000.951          50.000    20483200.592    83875375.337          47.000  
G12  21659546.679   113821929.671          45.000    21659548.555    88692537.802          43.000  
G15  25022915.275   131496495.162          34.000    25022922.280   102464915.974          33.000  
G23  20439117.641   107408410.693          46.000    20439120.250    83694932.995          49.000  
G24  23210712.033   121973352.003          39.000    23210718.001    95044306.005          41.000  
G25  20943694.606   110060099.925          45.000    20943699.091    85761260.939          43.000  
G28  22523756.708   118363340.539          43.000    22523759.727    92231281.442          44.000  
G32  22118273.714   116232461.345          47.000    22118277.860    90570843.918          44.000  
R 5  21905500.646   117097724.245          48.000                                                  
R 6  19941338.053   106410806.475          40.000                                                  
R 7  22534877.172   120630997.120          48.000                                                  
R 9  20334561.360   108585600.831          50.000    20334564.111    84455341.553          31.000  
R15  23140132.430   123654129.626          44.000                                                  
R16  19535989.095   104358015.859          52.000    19535992.472    81165911.899          30.000  
R22  23684137.751   126427522.406          41.000                                                  
C 1  37068115.326   193023421.163          44.000    37068116.809   156847374.516          41.000  
C 2  37741149.110   196528020.192          41.000    37741148.824   159695217.138          38.000  
C 3  36780319.308   191524769.815          46.000    36780318.540   155629591.643          43.000  
C 4  38412959.598   200026338.111          42.000    38412959.688   162537892.652          37.000  
C 5  40178610.659   209220587.919          36.000    40178612.625   170008929.276          35.000  
C 6  36409134.421   189592038.859          45.000    36409131.955   154059093.715          44.000  
C 8  36030232.153   187618940.068          46.000    36030227.668   152455718.768          45.000  
C 9  37562640.287   195598620.432          44.000    37562638.410   158939913.092          42.000  
C13  35809961.351   186471947.015          48.000    35809963.977   151523701.526          46.000  
C14  25099977.778   130702294.355          38.000    25099977.438   106206373.418          39.000  
C16  36840360.101   191837690.995          48.000    36840360.530   155883904.990          43.000  
C23  22873771.180   119109805.807          49.000    22873766.695    96786482.184          48.000  
C24  25101378.441   130709699.737          40.000    25101381.318   106214393.500          39.000  
C25  21682856.247   112908552.602          51.000    21682855.979    91749151.654          49.000  
C32  24971688.914   130034182.577          44.000    24971693.131   105663463.441          41.000  
C33  23508584.071   122415642.080          47.000    23508599.206    99474870.847          46.000  
> 2024  6 26 12 28  3.0000000  0 31                     
G10  20482989.756   107638909.906          50.000    20482993.026    83874525.174          47.000  
G12  21659503.739   113821702.444          45.000    21659505.365    88692360.740          43.000  
G15  25023447.218   131499290.145          34.000    25023453.705   102467093.896          33.000  
G23  20439426.382   107410033.276          46.000    20439428.562    83696197.346          49.000  
G24  23211319.419   121976543.653          39.000    23211325.530    95046793.009          41.000  
G25  20943305.687   110058055.028          46.000    20943309.439    85759667.504          43.000  
G28  22523330.156   118361098.128          43.000    22523333.140    92229534.104          44.000  
G32  22117955.753   116230789.273          47.000    22117959.023    90569541.013          44.000  
R 5  21905891.888   117099814.773          48.000                                                  
R 6  19941091.281   106409491.003          40.000                                                  
R 7  22534298.877   120627899.951          48.000                                                  
R 9  20334007.063   108582640.570          51.000    20334008.992    84453039.109          31.000  
R15  23140883.929   123658145.490          44.000                                                  
R16  19536216.210   104359228.997          52.000    19536219.391    81166855.425          29.000  
R22  23684430.732   126429086.261          41.000                                                  
C 1  37068126.155   193023476.932          45.000    37068127.442   156847419.837          41.000  
C 2  37741155.132   196528052.462          41.000    37741154.953   159695243.342          39.000  
C 3  36780329.690   191524824.586          46.000    36780329.172   155629636.153          43.000  
C 4  38412970.123   200026391.716          42.000    38412970.070   162537936.224          37.000  
C 5  40178612.446   209220594.778          37.000    40178613.804   170008934.834          35.000  
C 6  36409152.165   189592130.451          45.000    36409149.664   154059168.145          44.000  
C 8  36030372.211   187619669.840          47.000    36030367.797   152456311.758          45.000  
C 9  37562644.414   195598642.453          44.000    37562642.592   158939931.002          43.000  
C13  35810048.569   186472401.343          49.000    35810051.267   151524070.705          46.000  
C14  25100452.165   130704766.674          38.000    25100452.111   106208382.381          38.000  
C16  36840395.518   191837875.066          48.000    36840395.911   155884054.579          43.000  
C23  22873364.928   119107689.694          49.000    22873360.336    96784762.678          48.000  
C24  25101945.372   130712653.364          40.000    25101948.445   106216793.552          39.000  
C25  21683017.587   112909393.088          51.000    21683017.390    91749834.615          49.000  
C32  24971175.108   130031508.439          44.000    24971179.701   105661290.482          41.000  
C33  23508918.686   122417384.757          48.000    23508933.911    99476286.917          46.000  
> 2024  6 26 12 28  4.0000000  0 31                     
G10  20482779.169   107637803.891          50.000    20482782.171    83873663.347          47.000  
G12  21659457.780   113821460.326          45.000    21659459.281    88692172.065          43.000  
G15  25023976.159   131502069.646          35.000    25023982.110   102469259.716          33.000  
G23  20439732.389   107411640.910          46.000    20439734.694    83697450.041          49.000  
G24  23211923.856   121979719.792          39.000    23211929.735    95049267.904          41.000  
G25  20942913.622   110055995.145          45.000    20942917.965    85758062.384          43.000  
G28  22522900.567   118358840.475          43.000    22522903.551    92227774.903          44.000  
G32  22117634.468   116229101.721          47.000    22117638.899    90568226.038          44.000  
R 5  21906280.111   117101889.862          48.000                                                  
R 6  19940842.009   106408160.093          40.000                                                  
R 7  22533717.366   120624786.906          48.000                                                  
R 9  20333449.817   108579665.113          51.000    20333453.641    84450724.886          31.000  
R15  23141632.695   123662145.798          44.000                                                  
R16  19536440.484   104360427.166          52.000    19536444.022    81167787.344          29.000  
R22  23684720.889   126430634.913          41.000                                                  
C 1  37068133.928   193023517.271          45.000    37068135.179   156847452.602          41.000  
C 2  37741158.223   196528069.284          41.000    37741158.313   159695257.011          38.000  
C 3  36780337.142   191524863.963          46.000    36780336.766   155629668.160          42.000  
C 4  38412977.628   200026429.956          42.000    38412977.289   162537967.243          38.000  
C 5  40178610.498   209220586.218          36.000    40178612.392   170008927.873          35.000  
C 6  36409166.657   189592206.666          45.000    36409164.245   154059230.070          44.000  
C 8  36030509.248   187620384.396          46.000    36030505.049   152456892.394          45.000  
C 9  37562645.701   195598649.117          44.000    37562643.932   158939936.410          43.000  
C13  35810132.947   186472840.437          49.000    35810135.699   151524427.512          46.000  
C14  25100924.085   130707223.813          38.000    25100924.139   106210378.997          38.000  
C16  36840427.950   191838043.772          48.000    36840428.343   155884191.643          43.000  
C23  22872955.602   119105558.585          49.000    22872951.207    96783030.968          48.000  
C24  25102509.765   130715591.726          40.000    25102512.802   106219181.207          40.000  
C25  21683176.103   112910218.630          51.000    21683175.906    91750505.446          49.000  
C32  24970658.801   130028818.898          44.000    24970663.089   105659105.003          41.000  
C33  23509250.389   122419112.340          47.000    23509265.685    99477690.717          46.000  
> 2024  6 26 12 28  5.0000000  0 31                     
G10  20482569.941   107636704.427          50.000    20482573.032    83872806.626          48.000  
G12  21659412.822   113821224.825          46.000    21659414.466    88691988.558          43.000  
G15  25024506.315   131504855.200          34.000    25024512.623   102471430.305          33.000  
G23  20440039.379   107413255.092          46.000    20440042.006    83698707.826          49.000  
G24  23212529.223   121982901.928          39.000    23212535.727    95051747.486          41.000  
G25  20942522.648   110053941.762          46.000    20942527.312    85756462.354          43.000  
G28  22522471.889   118356589.110          43.000    22522475.338    92226020.581          44.000  
G32  22117314.362   116227420.194          47.000    22117318.257    90566915.755          45.000  
R 5  21906669.387   117103971.372          47.000                                                  
R 6  19940593.844   106406835.611          40.000                                                  
R 7  22533136.461   120621679.846          48.000                                                  
R 9  20332893.822   108576696.309          50.000    20332897.539    84448415.774          31.000  
R15  23142382.443   123666152.376          44.000                                                  
R16  19536666.063   104361632.196          52.000    19536669.779    81168724.580          29.000  
R22  23685012.368   126432190.147          41.000                                                  
C 1  37068142.845   193023563.496          45.000    37068143.810   156847490.201          41.000  
C 2  37741162.976   196528092.005          41.000    37741162.601   159695275.483          39.000  
C 3  36780346.130   191524909.234          46.000    36780345.486   155629704.946          43.000  
C 4  38412986.045   200026474.038          41.000    38412985.741   162538003.103          37.000  
C 5  40178609.783   209220583.563          36.000    40178611.946   170008925.728          35.000  
C 6  36409182.489   189592288.805          45.000    36409180.112   154059296.824          45.000  
C 8  36030647.608   187621105.052          46.000    36030643.320   152457477.988          45.000  
C 9  37562648.131   195598661.734          44.000    37562646.326   158939946.679          43.000  
C13  35810218.539   186473285.620          49.000    35810221.148   151524789.259          46.000  
C14  25101397.329   130709687.024          39.000    25101397.132   106212380.591          38.000  
C16  36840461.401   191838218.410          48.000    36840461.865   155884333.548          43.000  
C23  22872547.456   119103433.742          49.000    22872543.096    96781304.367          48.000  
C24  25103075.033   130718536.103          40.000    25103078.160   106221573.764          39.000  
C25  21683335.959   112911050.538          51.000    21683335.620    91751181.434          49.000  
C32  24970143.530   130026135.284          44.000    24970147.675   105656924.349          41.000  
C33  23509583.628   122420846.142          48.000    23509598.656    99479099.576          46.000  
> 2024  6 26 12 28  6.0000000  0 31                     
G10  20482363.679   107635620.427          50.000    20482366.484    83871961.953          48.000  
G12  21659370.883   113821004.891          46.000    21659371.991    88691817.215          43.000  
G15  25025039.384   131507655.688          34.000    25025045.031   102473612.549          33.000  
G23  20440349.532   107414884.749          46.000    20440351.604    83699977.699          49.000  
G24  23213137.699   121986099.007          39.000    23213144.025    95054238.721          41.000  
G25  20942134.730   110051903.823          46.000    20942138.786    85754874.354          43.000  
G28  22522046.374   118354352.949          43.000    22522049.680    92224278.123          44.000  
G32  22116997.079   116225753.604          47.000    22117000.868    90565617.118          45.000  
R 5  21907061.648   117106068.374          48.000                                                  
R 6  19940348.681   106405526.531          40.000                                                  
R 7  22532558.792   120618587.851          48.000                                                  
R 9  20332340.794   108573743.230          51.000    20332345.136    84446118.947          31.000  
R15  23143135.212   123670174.318          44.000                                                  
R16  19536894.625   104362853.149          52.000    19536896.984    81169674.215          29.000  
R22  23685306.743   126433761.081          41.000                                                  
C 1  37068154.602   193023624.504          45.000    37068155.782   156847539.728          40.000  
C 2  37741170.213   196528129.478          41.000    37741169.588   159695305.937          39.000  
C 3  36780357.655   191524969.242          46.000    36780356.887   155629753.698          42.000  
C 4  38412997.499   200026532.914          41.000    38412997.052   162538050.941          37.000  
C 5  40178612.535   209220595.677          37.000    40178614.001   170008935.573          35.000  
C 6  36409201.216   189592385.733          45.000    36409198.696   154059375.583          45.000  
C 8  36030788.881   187621840.657          47.000    36030784.717   152458075.728          45.000  
C 9  37562653.385   195598689.163          44.000    37562651.508   158939968.963          43.000  
C13  35810306.866   186473745.734          49.000    35810309.528   151525163.130          46.000  
C14  25101873.413   130712165.222          38.000    25101873.056   106214394.317          38.000  
C16  36840497.675   191838407.816          48.000    36840498.282   155884487.456          43.000  
C23  22872142.312   119101324.020          49.000    22872138.005    96779590.052          48.000  
C24  25103643.375   130721495.366          40.000    25103646.503   106223978.405          39.000  
C25  21683498.621   112911897.650          51.000    21683498.406    91751869.775          49.000  
C32  24969631.153   130023466.424          44.000    24969635.210   105654755.693          41.000  
C33  23509919.352   122422595.001          48.000    23509934.469    99480520.667          46.000  
> 2024  6 26 12 28  7.0000000  0 31                     
G10  20482155.201   107634524.270          50.000    20482158.274    83871107.809          47.000  
G12  21659326.836   113820772.899          46.000    21659328.123    88691636.406          43.000  
G15  25025569.862   131510443.576          34.000    25025575.490   102475784.904          32.000  
G23  20440657.290   107416502.264          46.000    20440659.327    83701238.093          49.000  
G24  23213743.494   121989283.388          39.000    23213750.035    95056720.050          41.000  
G25  20941744.613   110049853.700          46.000    20941748.955    85753276.853          43.000  
G28  22521618.572   118352104.363          43.000    22521620.609    92222525.973          44.000  
G32  22116677.742   116224074.333          47.000    22116681.655    90564308.593          44.000  
R 5  21907451.765   117108152.815          48.000                                                  
R 6  19940100.944   106404204.856          40.000                                                  
R 7  22531979.031   120615482.818          48.000                                                  
R 9  20331785.514   108570777.840          51.000    20331790.017    84443812.576          31.000  
R15  23143885.461   123674183.534          44.000                                                  
R16  19537120.954   104364061.955          53.000    19537124.242    81170614.418          30.000  
R22  23685598.722   126435319.606          41.000                                                  
C 1  37068163.716   193023672.863          45.000    37068165.199   156847579.031          40.000  
C 2  37741175.127   196528154.371          41.000    37741174.484   159695326.144          39.000  
C 3  36780366.554   191525016.624          46.000    36780365.893   155629792.214          42.000  
C 4  38413006.165   200026579.130          41.000    38413005.897   162538088.495          38.000  
C 5  40178612.392   209220595.136          36.000    40178613.858   170008935.150          35.000  
C 6  36409217.405   189592470.084          45.000    36409214.921   154059444.126          44.000  
C 8  36030927.812   187622563.826          46.000    36030923.524   152458663.368          45.000  
C 9  37562656.280   195598704.010          44.000    37562654.421   158939981.015          43.000  
C13  35810392.870   186474193.420          49.000    35810395.550   151525526.917          45.000  
C14  25102346.817   130714630.992          38.000    25102346.674   106216397.962          38.000  
C16  36840531.733   191838584.615          48.000    36840532.162   155884631.136          43.000  
C23  22871734.719   119099202.065          49.000    22871730.556    96777865.792          48.000  
C24  25104209.573   130724442.139          40.000    25104212.450   106226372.886          39.000  
C25  21683658.906   112912732.597          51.000    21683658.763    91752548.238          48.000  
C32  24969116.007   130020784.958          44.000    24969120.242   105652576.783          41.000  
C33  23510252.573   122424331.545          47.000    23510267.994    99481931.759          46.000  
> 2024  6 26 12 28  8.0000000  0 31                     
G10  20481945.204   107633420.823          50.000    20481948.170    83870247.940          47.000  
G12  21659281.234   113820533.677          46.000    21659282.342    88691449.990          43.000  
G15  25026098.820   131513223.657          35.000    25026104.967   102477951.192          33.000  
G23  20440963.869   107418112.478          46.000    20440966.227    83702492.812          49.000  
G24  23214348.004   121992459.923          39.000    23214354.687    95059195.274          41.000  
G25  20941353.210   110047796.240          46.000    20941357.266    85751673.622          43.000  
G28  22521189.394   118349848.212          43.000    22521191.609    92220767.939          44.000  
G32  22116356.618   116222387.251          47.000    22116360.907    90562993.986          44.000  
R 5  21907840.273   117110229.611          47.000                                                  
R 6  19939851.779   106402875.510          40.000                                                  
R 7  22531397.269   120612369.690          48.000                                                  
R 9  20331228.858   108567805.028          50.000    20331232.379    84441500.368          31.000  
R15  23144634.190   123678184.949          44.000                                                  
R16  19537345.925   104365263.549          52.000    19537350.392    81171548.975          29.000  
R22  23685889.344   126436870.693          41.000                                                  
C 1  37068171.453   193023713.397          45.000    37068172.829   156847611.975          41.000  
C 2  37741178.040   196528171.399          41.000    37741177.629   159695339.978          38.000  
C 3  36780374.220   191525056.187          46.000    36780373.487   155629824.372          42.000  
C 4  38413013.527   200026617.542          42.000    38413013.188   162538119.705          37.000  
C 5  40178610.516   209220586.794          36.000    40178612.285   170008928.336          34.000  
C 6  36409232.379   189592546.640          45.000    36409229.484   154059506.333          45.000  
C 8  36031065.422   187623279.382          47.000    36031061.062   152459244.821          45.000  
C 9  37562657.566   195598711.102          44.000    37562655.940   158939986.792          42.000  
C13  35810477.283   186474633.485          49.000    35810479.945   151525884.508          46.000  
C14  25102819.095   130717089.170          38.000    25102818.774   106218395.409          38.000  
C16  36840564.273   191838753.638          48.000    36840564.666   155884768.483          43.000  
C23  22871325.751   119097072.678          49.000    22871321.570    96776135.488          48.000  
C24  25104773.984   130727381.207          40.000    25104776.843   106228761.136          39.000  
C25  21683817.869   112913560.201          51.000    21683817.636    91753220.741          48.000  
C32  24968599.753   130018095.700          44.000    24968603.702   105650391.528          41.000  
C33  23510584.705   122426060.591          48.000    23510600.054    99483336.741          46.000  
> 2024  6 26 12 28  9.0000000  0 31                     
G10  20481737.530   107632330.417          50.000    20481740.711    83869398.298          47.000  
G12  21659238.313   113820307.601          46.000    21659240.118    88691273.836          43.000  
G15  25026629.888   131516016.263          35.000    25026636.767   102480127.260          33.000  
G23  20441272.502   107419735.745          46.000    20441274.968    83703757.711          49.000  
G24  23214954.728   121995648.970          39.000    23214961.179    95061680.237          41.000  
G25  20940964.184   110045751.798          46.000    20940968.472    85750080.562          43.000  
G28  22520762.145   118347604.841          43.000    22520765.272    92219019.857          43.000  
G32  22116037.978   116220712.694          47.000    22116042.016    90561689.127          44.000  
R 5  21908231.336   117112319.470          48.000                                                  
R 6  19939605.079   106401559.180          40.000                                                  
R 7  22530818.099   120609269.212          48.000                                                  
R 9  20330674.490   108564845.470          50.000    20330676.366    84439198.462          31.000  
R15  23145385.476   123682199.264          44.000                                                  
R16  19537573.362   104366478.640          52.000    19537578.080    81172494.029          29.000  
R22  23686182.289   126438434.998          41.000                                                  
C 1  37068181.549   193023766.278          45.000    37068183.104   156847654.940          41.000  
C 2  37741183.812   196528200.785          41.000    37741183.311   159695363.887          39.000  
C 3  36780384.262   191525108.108          46.000    36780383.548   155629866.546          42.000  
C 4  38413023.462   200026668.291          41.000    38413022.890   162538160.943          37.000  
C 5  40178611.445   209220590.751          36.000    40178613.018   170008931.552          36.000  
C 6  36409249.355   189592635.598          45.000    36409246.549   154059578.616          44.000  
C 8  36031205.229   187624007.503          47.000    36031200.797   152459836.457          45.000  
C 9  37562661.354   195598730.599          44.000    37562659.657   158940002.633          43.000  
C13  35810564.323   186475086.092          49.000    35810566.914   151526252.299          45.000  
C14  25103293.929   130719559.869          38.000    25103293.464   106220403.069          38.000  
C16  36840599.224   191838935.030          48.000    36840599.492   155884915.872          43.000  
C23  22870919.320   119094956.024          49.000    22870915.085    96774415.536          48.000  
C24  25105340.611   130730332.776          40.000    25105343.863   106231159.491          40.000  
C25  21683979.262   112914400.608          51.000    21683978.994    91753903.643          49.000  
C32  24968085.626   130015418.793          44.000    24968089.664   105648216.332          41.000  
C33  23510919.427   122427802.299          47.000    23510934.419    99484752.012          46.000  
> 2024  6 26 12 28 10.0000000  0 31                     
G10  20481529.160   107631234.776          50.000    20481532.322    83868544.565          47.000  
G12  21659194.248   113820076.376          46.000    21659195.606    88691093.696          43.000  
G15  25027160.151   131518803.174          34.000    25027167.120   102482298.867          33.000  
G23  20441580.457   107421353.791          46.000    20441582.744    83705018.501          49.000  
G24  23215560.738   121998832.242          39.000    23215566.474    95064160.718          41.000  
G25  20940574.085   110043702.077          46.000    20940578.713    85748483.377          43.000  
G28  22520334.396   118345355.962          43.000    22520337.398    92217267.477          43.000  
G32  22115718.283   116219032.367          47.000    22115722.428    90560379.809          44.000  
R 5  21908621.256   117114403.792          48.000                                                  
R 6  19939357.379   106400237.270          40.000                                                  
R 7  22530238.052   120606162.773          48.000                                                  
R 9  20330119.281   108561880.596          50.000    20330121.819    84436892.460          31.000  
R15  23146135.814   123686207.877          44.000                                                  
R16  19537799.834   104367688.645          52.000    19537802.961    81173435.105          29.000  
R22  23686474.412   126439993.958          41.000                                                  
C 1  37068190.448   193023813.384          45.000    37068192.163   156847693.225          40.000  
C 2  37741188.601   196528224.387          41.000    37741188.100   159695383.071          38.000  
C 3  36780392.964   191525154.234          46.000    36780392.500   155629904.034          42.000  
C 4  38413032.290   200026713.257          41.000    38413031.611   162538197.482          37.000  
C 5  40178610.945   209220588.969          37.000    40178612.571   170008930.139          35.000  
C 6  36409265.187   189592718.803          45.000    36409262.632   154059646.221          44.000  
C 8  36031343.946   187624730.032          46.000    36031339.550   152460423.571          45.000  
C 9  37562664.285   195598744.352          44.000    37562662.337   158940013.813          42.000  
C13  35810650.255   186475533.135          48.000    35810652.774   151526615.542          45.000  
C14  25103766.976   130722025.022          38.000    25103766.743   106222406.210          38.000  
C16  36840632.711   191839110.671          48.000    36840633.211   155885058.588          43.000  
C23  22870511.906   119092833.976          49.000    22870507.528    96772691.200          48.000  
C24  25105906.523   130733278.660          40.000    25105909.471   106233553.287          39.000  
C25  21684139.511   112915235.703          51.000    21684139.368    91754582.221          49.000  
C32  24967570.337   130012736.130          44.000    24967574.625   105646036.453          41.000  
C33  23511252.667   122429538.541          47.000    23511267.820    99486162.858          46.000  
> 2024  6 26 12 28 11.0000000  0 31                     
G10  20481320.896   107630141.072          50.000    20481324.470    83867692.306          47.000  
G12  21659150.683   113819847.172          46.000    21659152.720    88690915.064          43.000  
G15  25027690.647   131521591.492          34.000    25027697.633   102484471.611          33.000  
G23  20441888.733   107422973.771          46.000    20441890.788    83706280.841          49.000  
G24  23216166.588   122002016.899          39.000    23216173.128    95066642.246          41.000  
G25  20940184.504   110041654.258          46.000    20940188.918    85746887.687          43.000  
G28  22519906.558   118343108.747          43.000    22519909.382    92215516.416          44.000  
G32  22115398.731   116217353.446          47.000    22115403.323    90559071.540          44.000  
R 5  21909011.480   117116489.866          48.000                                                  
R 6  19939109.893   106398917.084          40.000                                                  
R 7  22529657.559   120603057.650          48.000                                                  
R 9  20329564.377   108558917.678          50.000    20329568.254    84434587.996          32.000  
R15  23146886.116   123690218.068          44.000                                                  
R16  19538026.753   104368900.855          52.000    19538029.987    81174377.965          31.000  
R22  23686766.928   126441554.831          41.000                                                  
C 1  37068199.954   193023861.813          45.000    37068201.348   156847732.594          41.000  
C 2  37741192.925   196528249.339          41.000    37741192.764   159695403.330          39.000  
C 3  36780402.256   191525201.709          46.000    36780401.667   155629942.611          42.000  
C 4  38413040.902   200026759.560          41.000    38413040.402   162538235.107          37.000  
C 5  40178610.516   209220588.515          37.000    40178612.839   170008929.799          35.000  
C 6  36409281.305   189592803.367          45.000    36409278.892   154059714.950          45.000  
C 8  36031483.110   187625454.090          46.000    36031478.625   152461011.938          45.000  
C 9  37562667.055   195598759.499          44.000    37562665.053   158940026.112          43.000  
C13  35810736.384   186475981.694          49.000    35810738.832   151526980.031          46.000  
C14  25104240.415   130724491.696          38.000    25104240.505   106224410.585          38.000  
C16  36840666.751   191839287.673          48.000    36840667.002   155885202.419          43.000  
C23  22870104.868   119090713.646          49.000    22870100.293    96770968.254          48.000  
C24  25106472.506   130736226.044          40.000    25106475.419   106235948.254          40.000  
C25  21684300.386   112916072.585          51.000    21684300.118    91755262.264          49.000  
C32  24967055.637   130010054.804          44.000    24967059.622   105643857.658          42.000  
C33  23511586.406   122431276.429          48.000    23511601.559    99487575.037          46.000  
> 2024  6 26 12 28 12.0000000  0 31                     
G10  20481115.402   107629061.016          50.000    20481119.155    83866850.724          47.000  
G12  21659109.692   113819631.719          46.000    21659111.157    88690747.188          43.000  
G15  25028223.805   131524392.993          34.000    25028230.130   102486654.543          33.000  
G23  20442199.511   107424607.431          46.000    20442201.727    83707553.801          49.000  
G24  23216775.064   122005214.685          39.000    23216781.836    95069134.059          41.000  
G25  20939797.372   110039620.084          46.000    20939801.786    85745302.612          43.000  
G28  22519481.580   118340874.930          43.000    22519484.456    92213775.791          43.000  
G32  22115081.895   116215687.668          47.000    22115085.416    90557773.543          45.000  
R 5  21909404.259   117118589.623          48.000                                                  
R 6  19938864.926   106397610.555          40.000                                                  
R 7  22529080.086   120599965.805          48.000                                                  
R 9  20329012.135   108555968.697          51.000    20329015.369    84432294.312          31.000  
R15  23147639.170   123694241.777          44.000                                                  
R16  19538256.334   104370127.174          52.000    19538260.569    81175331.813          29.000  
R22  23687061.570   126443129.530          41.000                                                  
C 1  37068211.569   193023923.219          45.000    37068213.052   156847782.468          41.000  
C 2  37741200.215   196528287.259          41.000    37741199.965   159695434.150          39.000  
C 3  36780413.728   191525262.145          46.000    36780413.085   155629991.701          42.000  
C 4  38413052.214   200026818.809          42.000    38413051.838   162538283.289          37.000  
C 5  40178613.393   209220601.030          36.000    40178615.287   170008939.942          35.000  
C 6  36409299.996   189592900.926          45.000    36409297.583   154059794.222          44.000  
C 8  36031624.508   187626191.294          47.000    36031620.201   152461610.977          45.000  
C 9  37562672.540   195598787.652          44.000    37562670.557   158940048.996          43.000  
C13  35810825.050   186476443.393          49.000    35810827.516   151527355.206          46.000  
C14  25104716.839   130726971.543          38.000    25104716.821   106226425.668          38.000  
C16  36840703.204   191839477.661          48.000    36840703.597   155885356.814          43.000  
C23  22869700.063   119088606.657          49.000    22869695.703    96769256.160          48.000  
C24  25107040.777   130739186.510          40.000    25107043.993   106238353.873          40.000  
C25  21684463.619   112916922.899          51.000    21684463.494    91755953.204          49.000  
C32  24966542.939   130007386.470          44.000    24966547.317   105641689.416          41.000  
C33  23511922.719   122433027.600          48.000    23511937.908    99488998.002          46.000  
> 2024  6 26 12 28 13.0000000  0 31                     
G10  20480907.693   107627968.967          50.000    20480911.052    83865999.772          47.000  
G12  21659066.306   113819404.334          46.000    21659067.735    88690570.003          43.000  
G15  25028754.622   131527181.937          35.000    25028760.876   102488827.812          33.000  
G23  20442508.342   107426229.080          46.000    20442510.272    83708817.428          48.000  
G24  23217381.360   122008399.902          39.000    23217387.489    95071616.035          41.000  
G25  20939408.095   110037573.846          46.000    20939412.348    85743708.152          43.000  
G28  22519054.099   118338628.848          43.000    22519056.779    92212025.602          43.000  
G32  22114762.612   116214009.360          47.000    22114766.060    90556465.775          44.000  
R 5  21909794.858   117120676.936          48.000                                                  
R 6  19938617.815   106396291.555          40.000                                                  
R 7  22528500.308   120596861.085          48.000                                                  
R 9  20328457.695   108553007.490          51.000    20328462.394    84429991.114          31.000  
R15  23148390.063   123698252.920          45.000                                                  
R16  19538483.735   104371341.490          52.000    19538487.524    81176276.237          29.000  
R22  23687354.211   126444692.037          41.000                                                  
C 1  37068221.075   193023972.122          45.000    37068222.487   156847822.196          40.000  
C 2  37741205.308   196528312.673          41.000    37741204.808   159695454.796          38.000  
C 3  36780423.038   191525310.082          46.000    36780422.377   155630030.682          42.000  
C 4  38413060.880   200026865.563          41.000    38413061.094   162538321.281          37.000  
C 5  40178613.321   209220601.056          37.000    40178615.287   170008939.949          34.000  
C 6  36409316.507   189592986.045          45.000    36409313.951   154059863.388          44.000  
C 8  36031763.529   187626916.205          46.000    36031759.437   152462200.016          45.000  
C 9  37562675.507   195598803.392          44.000    37562673.595   158940061.774          42.000  
C13  35810911.375   186476892.827          49.000    35810913.912   151527720.408          45.000  
C14  25105190.440   130729439.127          38.000    25105190.672   106228430.780          38.000  
C16  36840737.263   191839655.210          48.000    36840737.727   155885501.084          43.000  
C23  22869293.150   119086487.563          49.000    22869288.843    96767534.220          48.000  
C24  25107607.082   130742134.609          40.000    25107609.977   106240749.457          39.000  
C25  21684624.494   112917761.181          51.000    21684624.548    91756634.388          48.000  
C32  24966028.169   130004705.653          44.000    24966032.493   105639511.032          41.000  
C33  23512256.656   122434766.587          47.000    23512271.808    99490411.069          46.000  
